,Store ID,Total Visits,lat,lng,Store,Address,Place_ID,City,County,State,zipcode,GEOID,TRACT,StateID,CountyID,TractPopulation,family,non_family,2022 Total Population,2022 Population Density,2022 Median Household Income,2022 Median Net Worth,2022 Median Disposable Income,2022 Median Age,2022 Total Housing Units,2022 Median Home Value,2022 Owner Occupied HUs,2022 Renter Occupied HUs,2020 Median Year Structure Built: HUs (ACS 5-Yr),2022 Pop Age 25+: Bachelor's Degree,2022 Pop Age 25+: Grad/Professional Degree,2022 Apparel/Accessory Sales ($000) (SIC),2022 Furniture/Home Furnish Sales ($000) (SIC),2022 Home Improvement Sales ($000) (SIC),2022 Men`s Apparel,2022 Women`s Apparel,2022 Bought Clothing in Dept Store/6 Mo,2022 Bought Clothing in Discount Store/6 Mo,2022 Bought Clothing Online/6 Mo,2022 HH Purchased Low Ticket HH Furnishing/12 Mo,2022 Tapestry Adult Pop Base,2022 Discount Store Clothes Just as Good: 4-Agr Cmpl,2022 Total Daytime Population,2022 Daytime Pop Density,2022 Pop Age 15+: Married,2022 Pop Age 15+: Divorced,2022 Pop Age 15+: Never Married,2022 Black Population,2022 White Population,2022 Hispanic Population,2022 Total Crime Index,2022 Personal Crime Index,2022 Property Crime Index,ZIPcode,Income tax
0,817,471157,30.65283447,-87.90662753,T.J. Maxx," 6850 US Highway 90, Daphne, AL, United States",184037865,Daphne,Baldwin County,Alabama,36527,1003010704,10704,1,3,6106,5471,635,20890,914.7,81209,224690,62290,43.7,9140,236009,6494,1934,1989,4155,2355,19613,40393,110747,3812230,6999272,6447,2669,5582,1826,16903,4969,22175,971,9207,2230,5000,1742,17021,959,85,52,91,36527,541670
1,1166,458653,30.37584144,-87.67847689,T.J. Maxx," 2601 South McKenzie St., Foley, AL, United States",17015168,Foley,Baldwin County,Alabama,36535,1003011503,11503,1,3,8151,5937,2214,22655,681.7,44749,100129,38029,41.5,10610,226356,6474,2850,1997,2834,1359,43850,31920,122990,2765510,5093902,6540,2815,5448,2052,17883,5797,25262,760.2,8913,2819,4795,2181,16654,2873,168,99,179,36535,454080
2,1446,560818,30.37788523,-87.68632428,Marshalls," South Pine Street, Foley, Alabama, United States",101466848,Foley,Baldwin County,Alabama,36535,1003011503,11503,1,3,8151,5937,2214,27129,658,45430,101002,38621,41.6,12989,222614,7913,3360,1997,3483,1638,44188,31972,127647,3325475,6141699,7831,3360,6538,2484,21405,6866,28327,687.1,10589,3395,5861,2485,20242,3251,170,100,182,36535,454080
3,73,757204,34.82570805,-87.62562727,T.J. Maxx," 187 Cox Creek Pkwy, Florence, AL, United States",207765010,Florence,Lauderdale County,Alabama,35630,1077010800,10800,1,77,3412,2658,737,38342,735.9,42927,48337,36448,41.4,18952,181307,8907,7967,1974,4417,2747,34372,39819,88019,4789149,8796055,11301,5064,9806,3530,31731,9910,51236,983.3,14968,4641,10768,6359,27869,2019,154,106,162,35630,384844
4,27,710596,31.2460136,-85.424775,T.J. Maxx," 3500 Ross Clark Cir, Dothan, AL, United States",95180820,Dothan,Houston County,Alabama,36303,1069040400,40400,1,69,2450,2031,386,43277,1082.1,48809,57068,39969,39.9,20930,186149,10458,8138,1975,5032,2987,68297,158841,202917,6156469,11456554,12290,5028,9849,3965,33712,11059,58142,1453.8,15729,5052,11758,16743,22437,1887,179,218,172,36303,517778
5,242,676723,33.39335053,-86.80787109,T.J. Maxx," 1646 Montgomery Hwy, Hoover, AL, United States",68977201,Hoover,Jefferson County,Alabama,35216,1073014409,14409,1,73,2988,2379,498,77508,1995.4,79284,145665,64080,37.5,36398,297640,18861,14989,1982,18753,12826,157431,286739,162894,18353875,31960432,21907,9198,20872,7335,60787,16857,91142,2346.4,34678,6195,19327,14756,51155,4759,105,54,113,35216,1005510
6,662,672003,32.61772288,-85.40596121,T.J. Maxx," 2185 Tigertown Parkway, Opelika, AL, United States",283362658,Opelika,Lee County,Alabama,36801,1081041101,41101,1,81,2106,1181,625,37093,939.8,59447,107920,50493,36.5,16240,225000,10059,4844,1991,5514,4720,25910,74005,220759,6214130,11259414,10439,4272,8912,3386,28101,9061,47737,1209.5,14874,3556,9327,11901,19906,2874,188,173,191,36801,395568
7,465,595703,34.01266801,-85.98970988,T.J. Maxx," 316 E Meighan Blvd, Gadsden, AL, United States",130989526,Gadsden,Etowah County,Alabama,35903,1055001300,1300,1,55,2967,2089,863,29357,986.5,29888,19013,25702,41.4,14596,97268,6826,5368,1959,2076,1289,26877,25401,79358,2560675,4920670,8093,3374,6019,2601,23239,8079,39405,1324.1,8563,4134,9304,11265,14183,2496,315,290,319,35903,231345
8,1446,550241,34.27934442,-86.20673902,T.J. Maxx," 832 Christopher Circle, Albertville, Alabama, United States",97401171,Albertville,Marshall County,Alabama,35951,1095030801,30801,1,95,4864,4123,574,31063,500.8,50440,73829,40817,35.6,11710,135388,6905,4032,1980,2572,1024,28587,17482,88809,3077929,5781803,8008,3587,5735,2432,22559,8027,35735,576.1,12946,2724,6267,1276,19796,9858,125,53,137,35951,170065
9,1079,548695,32.45711144,-86.3968484,T.J. Maxx," 2748 Legends Pkwy, Prattville, AL, United States",81331481,Prattville,Elmore County,Alabama,36066,1051031300,31300,1,51,5166,4427,739,26171,1031.7,68354,110713,55836,38.1,11062,184457,6495,3933,1996,3945,2591,5772,16866,55124,3848810,7076309,7869,3236,6648,2359,20228,6319,24583,969.1,11284,2277,6639,5589,17501,1222,182,86,198,36066,453464
10,45,531727,33.60483555,-86.63828671,T.J. Maxx," 1648 Gadsden Hwy, Birmingham, AL, United States",152875394,Trussville,Jefferson County,Alabama,35235,1073011108,11108,1,73,4979,4080,899,36006,1015.3,63138,153060,52886,41,15037,201524,9714,4192,1976,5409,2993,24394,132766,127227,5211136,9675801,10445,4292,8988,3013,28156,8526,43190,1217.9,14532,4264,8796,15105,17418,2270,188,231,181,35235,340038
11,1045,531480,33.60837815,-85.78320548,T.J. Maxx," 300 Oxford Exchange Blvd, Oxford, AL, United States",283342525,Oxford,Calhoun County,Alabama,36207,1015001101,1101,1,15,2088,1937,151,26946,567.8,63056,144828,52463,42.8,12413,178717,7656,3475,1980,3015,2524,25858,46064,139958,4073239,7654552,8036,3412,6560,2532,21497,6603,35034,738.3,12124,2761,5939,6146,17520,1800,188,140,196,36207,358382
12,1149,522109,34.15084311,-86.83897821,T.J. Maxx," 1908 Marktplatz Center, SW, Cullman, AL, United States",61832862,Cullman,Cullman County,Alabama,35055,1043965002,965002,1,43,4404,2943,1036,24306,421.2,52760,101452,43624,41.3,10460,155951,6189,3506,1977,2371,1251,9881,47325,90811,2828708,5422421,6832,2844,5063,2088,19219,6461,32276,559.3,10139,3085,5143,294,21100,1674,165,131,170,35055,341269
13,705,520098,34.68981044,-86.57808509,T.J. Maxx," 975 Airport Rd SW Ste 22A, Huntsville, AL, United States",9481482,Huntsville,Madison County,Alabama,32802,1089002600,2600,1,89,3896,2180,1595,91121,2147.2,50015,70349,41657,41.6,44336,209623,20856,19383,1970,16654,10481,97030,158227,170099,15217705,27391239,26720,11174,23299,8539,73389,21780,114058,2687.7,34989,10411,25327,22232,54207,9655,201,227,196,,
14,209,489876,33.64939863,-86.823636,T.J. Maxx," 655 Fieldstown Rd S150, Gardendale, AL, United States",253451609,Gardendale,Jefferson County,Alabama,35071,1073011707,11707,1,73,3352,2605,716,25540,899.8,66800,163176,55704,40.5,11241,197899,7638,2778,1980,3272,1655,8059,14756,28891,3981276,7456488,7576,3099,6338,2295,19958,6234,22758,801.8,11674,2591,5049,6017,16500,1803,152,156,151,35071,389425
15,279,485713,34.75703117,-86.73690152,T.J. Maxx," 7696 Hwy 72 W NW, Madison, AL, United States",100114538,Madison,Madison County,Alabama,35758,1089010612,10612,1,89,6071,4962,961,86052,1565.2,101352,234741,80478,37.7,36770,259456,23336,10959,1999,21009,14613,73401,115065,106862,18933003,33954148,26469,10498,24358,7797,66693,19690,81190,1476.8,40718,6360,20572,17751,54702,4826,129,109,132,35758,1561644
16,1396,469954,31.3179396,-85.82869189,T.J. Maxx," 616 Boll Weevil Circle, Enterprise, AL, United States",153561494,Enterprise,Coffee County,Alabama,36330,1031011206,11206,1,31,4378,3235,1126,31019,735.7,61245,78901,51676,36.3,13817,181066,6909,5398,1984,4083,2030,7276,18903,46159,4263012,7904485,8959,3598,7006,2715,23716,7760,28566,677.6,13201,3439,6717,6488,18611,4258,119,103,121,36330,677873
17,267,365909,30.67742241,-88.14683993,T.J. Maxx," 3940 Airport Blvd, Mobile, AL, United States",186142326,Mobile,Mobile County,Alabama,36608,1097003301,3301,1,97,2414,1431,889,73756,2358.8,50235,34742,41277,35.8,35094,190260,15036,16459,1975,12039,7376,95045,154476,245108,10812795,19710930,20624,9025,18416,6675,58580,17523,99652,3187,23577,7780,25222,29882,36563,3050,216,201,219,36608,817281
18,1471,314216,33.33548414,-86.99132475,T.J. Maxx," 4917 Promenade Pkwy, Bessemer, AL, United States",261824727,Pleasant Hill,Jefferson County,Alabama,35022,1073014105,14105,1,73,4854,4028,661,19993,639.4,60736,145741,51375,41.3,8738,190198,5890,2085,1984,2649,1318,28918,4956,19223,2763894,5267628,5836,2422,4877,1788,15558,4767,22085,706.3,7605,1847,5522,10461,7590,1415,281,341,271,35022,487283
19,231,396697,33.39283881,-86.8078986,HomeGoods," 1660 Montgomery Hwy, Hoover, AL, United States",68659392,Hoover,Jefferson County,Alabama,35226,1073014409,14409,1,73,2988,2379,498,77508,1995.4,79284,145665,64080,37.5,36398,297640,18861,14989,1982,18753,12826,157431,286739,162894,18353875,31960432,21907,9198,20872,7335,60787,16857,91142,2346.4,34678,6195,19327,14756,51155,4759,105,54,113,35226,1301132
20,853,368202,31.22710584,-85.43081099,HomeGoods," 3080 Ross Clark Circle, Dothan, AL, United States",97668651,Dothan,Houston County,Alabama,36303,1069040500,40500,1,69,3612,2909,703,59169,1223.3,53387,76293,44176,39.7,27902,194603,14681,10373,1979,7208,4283,70227,147882,248051,8810612,16398648,16818,7004,13670,5386,45847,14779,72581,1500.6,22363,6680,15340,19193,34088,2738,163,186,159,36303,517778
21,688,319823,30.65240475,-88.11551895,HomeGoods," 1310 Tingle Circle East, Suite F, Mobile, AL, United States",203915184,Mobile,Mobile County,Alabama,36606,1097002100,2100,1,97,4249,3773,476,85654,1909.5,45703,34120,38187,37.2,41775,167207,17760,17863,1967,11549,6799,91862,171830,406361,11108858,20546350,23424,9566,19729,7530,66301,21163,118362,2638.7,26944,9381,28274,45395,33352,2810,243,284,236,36606,271174
22,761,266300,33.61003818,-86.62374802,HomeGoods," 5479 Patrick Way, Birmingham, AL, United States",74421050,Trussville,Jefferson County,Alabama,35235,1073011108,11108,1,73,4979,4080,899,19804,960.5,78524,214924,62399,41.7,7940,231297,5622,1879,1986,3579,2069,19044,113478,115857,3193281,5911727,5824,2437,5196,1643,15571,4440,26936,1306.4,9241,2244,3652,5665,12381,734,184,210,179,35235,340038
23,568,200023,34.74181903,-86.66475598,HomeGoods," 5850 University Drive NW, Suite A, Huntsville, AL, United States",5824248,Huntsville,Madison County,Alabama,35806,1089010627,10627,1,89,4346,2235,2111,88605,1361,54703,49292,45963,35.2,43472,193127,18004,20999,1984,16189,9876,81251,183661,188197,14917048,26400620,26003,10719,22714,8311,70875,21787,108189,1661.8,30813,8508,31128,34554,40196,7485,228,250,224,35806,755770
24,422,579489,34.67480735,-86.5457253,Marshalls," 2750 Carl T Jones Dr SE, Huntsville, AL, United States",5867702,Huntsville,Madison County,Alabama,35802,1089001902,1902,1,89,1776,1343,433,57959,1902.6,74206,185315,59094,45.6,28131,238598,16014,9856,1976,13677,9289,87416,91935,117130,12045479,21800219,17367,7292,15713,5518,47035,12911,71986,2363.1,26586,6044,12781,6708,42775,4761,171,189,168,35802,668392
25,316,418587,30.67761061,-88.12260762,Marshalls," 3250 Airport Blvd., Mobile, AL, United States",190708376,Mobile,Mobile County,Alabama,36606,1097002800,2800,1,97,4116,3012,1104,89553,2055,45501,34291,38016,37.1,43468,166488,18954,18476,1967,12173,7428,93714,167678,309936,11667615,21563689,24369,9887,20661,7909,69035,21859,116454,2672.3,28022,9926,29090,48188,34348,2873,240,273,234,36606,271174
26,1227,395458,33.36105771,-86.85386633,Marshalls," Grove Boulevard, Hoover, Alabama, United States",80206973,Hoover,Jefferson County,Alabama,35244,1073014414,14414,1,73,5671,5277,394,51700,1678.1,87300,185011,70290,37.2,22509,292028,12614,8307,1990,11481,7957,145652,185159,75064,11505597,20192256,14899,6233,13730,4544,40035,11240,57074,1852.5,24064,3610,12258,11237,32004,3438,104,47,113,35244,1246474
27,767,330430,33.63910488,-86.62771501,Marshalls," Trussville Crossings Pkwy, Trussville, Alabama, United States",153228662,Trussville,Jefferson County,Alabama,35235,1073011113,11113,1,73,3513,2938,575,28541,1294.8,65373,157897,53883,38.8,11501,192587,7809,2814,1987,3877,2057,4490,44851,63582,4065093,7447697,8439,3457,7247,2337,22146,6640,22227,1008.3,11367,3583,6683,12933,13224,1259,127,142,124,35235,340038
28,809,266024,34.75430438,-86.74775761,Marshalls," 7950 Highway 72 W Ste 7, Madison, AL, United States",53329239,Madison,Madison County,Alabama,35758,1089010612,10612,1,89,6071,4962,961,98119,1518.6,101214,242343,80303,37.8,41182,252227,26825,11683,1999,23217,15861,52251,101948,110858,21135701,37947302,30118,11897,27509,8736,75836,22539,84119,1301.9,46389,7527,23027,19684,62896,5479,123,102,127,35758,1561644
29,649,585935,33.18497378,-87.52800996,T.J. Maxx," McFarland Boulevard East, Tuscaloosa, Alabama, United States",18734162,Tuscaloosa,Tuscaloosa County,Alabama,35405,1125011901,11901,1,125,3199,1708,1491,100341,1956.4,40693,16229,34567,28.5,48890,188480,17119,24688,1984,11500,8866,98009,135202,224894,13704571,24069850,28925,12801,25841,9084,84096,27395,135182,2635.7,24769,8248,50270,42671,46524,6590,184,145,191,35405,749301
30,1074,524758,33.22367944,-86.80391794,T.J. Maxx," 320 S Colonial Dr, Alabaster, AL, United States",92626044,Alabaster,Shelby County,Alabama,35007,1117030616,30616,1,117,2658,2346,312,15294,638.9,70538,177373,56875,37.3,6047,209244,4510,1168,1994,2266,1277,8924,58212,83241,2258027,4130887,4637,1915,3859,1225,11687,3798,21158,883.9,6896,1172,3422,2655,9202,2773,129,102,133,35007,591456
31,243,510554,32.34508806,-86.22138895,T.J. Maxx," 2751 Eastern Blvd, Montgomery, AL, United States",339424144,Montgomery,Montgomery County,Alabama,36123,1101005410,5410,1,101,3372,1608,1760,88433,2210.4,55502,69002,46804,35.7,42580,162486,19274,19127,1981,13908,9341,93299,153634,203862,14316276,25597675,24975,10673,21304,8069,68701,21328,97389,2434.2,28890,9122,30117,54391,24901,4295,184,126,194,,
32,1366,456588,33.84977072,-87.26907566,T.J. Maxx," 606 Highway 78 E, Jasper, AL, United States",216659142,Jasper,Walker County,Alabama,35501,1127020302,20302,1,127,3163,2400,613,19797,349.5,54940,125559,46152,43.9,8634,182474,5529,2216,1980,1708,947,9444,19291,88702,2472707,4756327,5754,2561,4448,1642,15963,5136,26352,465.2,8813,1965,4115,1918,15866,1397,227,182,235,35501,125937
33,466,422139,33.4218513,-86.69223753,T.J. Maxx," Cahaba Beach Road, Hoover, Alabama, United States",44835381,Hoover,Shelby County,Alabama,35242,1117030221,30221,1,117,5247,4205,1042,43806,1453.8,90646,193887,72651,39.5,20305,376868,11873,7340,1994,12972,8013,83400,139362,113946,11427203,20144029,13473,5257,13791,4493,35566,9744,56198,1865.1,21752,3076,10635,4871,33336,2044,162,119,170,35242,2318210
34,1595,347167,31.77784479,-85.9452729,T.J. Maxx," 1307 US Hwy 231, Troy, AL, United States",290926623,Troy,Pike County,Alabama,36082,1109189002,189002,1,109,717,547,170,18653,310,40944,24440,34632,29.7,8702,177341,4084,3543,1987,1907,1568,6879,9666,48829,2377855,4265655,5416,2541,4793,1701,15618,5218,23036,382.8,5099,1379,8919,7341,9659,564,211,263,202,,
35,1524,296829,33.17396136,-86.28282353,T.J. Maxx," 145 Mcs Blvd, Sylacauga, AL, United States",76929093,Sylacauga,Talladega County,Alabama,35150,1121011900,11900,1,121,2764,2054,518,18892,297.2,40653,54784,34602,42.3,9369,121573,5279,2920,1974,1568,700,5724,7454,42058,2111909,4100576,5349,2428,3744,1708,15034,5348,22144,348.4,7663,2049,4558,5786,11904,473,156,129,161,35150,242561
36,415,403453,33.42006286,-86.68573381,HomeGoods," 5215 US-280, Birmingham, AL, United States",101683807,Birmingham,Shelby County,Alabama,35242,1117030221,30221,1,117,5247,4205,1042,43629,1404.5,91500,200728,73329,39.5,20134,379702,11912,7120,1994,12846,7824,81317,135715,113900,11397777,20089026,13420,5219,13719,4454,35273,9669,55219,1777.6,21704,3063,10441,4942,33117,2019,161,118,168,35242,2318210
37,1034,393842,33.18501388,-87.52761229,HomeGoods," 2600 McFarland Blvd E, Tuscaloosa, AL, United States",179568007,Tuscaloosa,Tuscaloosa County,Alabama,35487,1125011901,11901,1,125,3199,1708,1491,105245,1840,41635,17861,35310,28.9,51560,188499,18604,25618,1985,12185,9313,98453,135346,226620,14629290,25733731,30402,13415,27025,9600,87967,28635,138987,2429.9,26660,8821,51569,44941,48648,6905,183,144,189,,
38,1355,459410,32.3596849,-86.15858661,Marshalls," 7680 Eastchase Pkwy, Montgomery, AL, United States",101894583,Montgomery,Montgomery County,Alabama,36117,1101005412,5412,1,101,5051,3519,1483,60175,1402.6,74301,143878,59612,37.7,28722,252558,15241,11304,1994,12779,9205,78651,138155,202631,12430718,21824634,17497,7504,16408,5780,47005,13397,62868,1465.4,25348,5045,16515,27175,23542,1758,136,63,148,36117,1134574
39,1427,564026,36.00897711,-84.25540392,T.J. Maxx,"367 S Illinois Ave, Oak Ridge, TN, United States",229036853,Oak Ridge,Anderson County,Tennessee,37830,47001020100,20100,47,1,3199,1933,1259,29414,984.5,54323,119443,47105,44.4,13834,177705,8284,4259,1963,4176,3838,5587,11113,62285,4396444,8179980,8539,3491,7180,2675,23575,7181,35875,1200.8,12437,3178,7032,2168,23089,1865,106,121,104,37830,674283
40,839,256948,35.7510673,-83.99065566,HomeGoods,"730 Watkins Rd, Maryville, TN, United States",330865327,Maryville,Blount County,Tennessee,37801,47009010500,10500,47,9,2740,1968,771,54344,1289.4,60708,132345,52194,42.1,23195,242741,15062,6702,1983,7427,4477,20447,42295,184539,7787236,14881905,15369,7156,12789,4629,43433,13963,62836,1490.8,23529,6043,12418,2385,45917,2843,114,97,116,37801,530476
41,1093,248757,36.01126971,-84.25341437,HomeGoods,"161 E Main St, Oak Ridge, TN, United States",315680028,Oak Ridge,Anderson County,Tennessee,37830,47001020100,20100,47,1,3199,1933,1259,28454,1006.2,53346,116800,46270,44.2,13388,176441,7959,4178,1961,3955,3685,5658,10132,63584,4213044,7846850,8225,3374,6914,2586,22794,6966,35035,1239,12028,3058,6830,2162,22180,1846,107,124,105,37830,674283
42,603,827305,29.6620785,-82.42281801,T.J. Maxx,"1009 NW 76th Blvd, Gainesville, FL, United States",193748994,Gainesville,Alachua County,Florida,32607,12001002204,2204,12,1,11001,9241,1692,69348,1912.2,61917,60021,53321,30.9,31150,293699,12929,15519,1988,11010,11909,105335,77699,276647,12994003,22341225,19664,8787,18957,6327,57195,16676,72684,2004.2,24431,5484,26843,11965,39716,10134,102,101,102,32607,589089
43,564,488801,30.18750453,-85.66889004,T.J. Maxx,"523 West 23rd Street, Panama City, FL, United States",64415537,Panama City,Bay County,Florida,32405,12005001502,1502,12,5,6034,5038,855,32176,1746.1,53707,83508,46536,42,16152,210981,7783,5382,1979,3635,2402,5897,77204,164102,4243485,7823353,9292,3846,7802,2901,25747,8081,50998,2767.5,10803,4793,8605,5736,20494,3744,203,168,209,32405,501459
44,199,436561,28.35488355,-80.69962881,T.J. Maxx,"120 S Courtenay Pkwy, Merritt Island, FL, United States",40605754,Merritt Island,Brevard County,Florida,32952,12009071602,71602,12,9,2230,1690,531,55737,1777.8,62560,188763,53549,48.7,26503,303199,17196,6652,1971,8786,5041,32586,69655,116404,9577713,18091036,16574,7267,14139,5015,45796,14010,63399,2022.2,24092,6071,13232,7149,39113,6417,126,153,121,32952,589444
45,417,350150,28.23810502,-80.72728213,T.J. Maxx,"2314 Remi Dr, Melbourne, FL, United States",76827434,Viera,Brevard County,Florida,32940,12009071201,71201,12,9,7360,5168,2192,52506,1872.4,84333,344341,70318,51,24570,323734,18230,4087,2001,11329,8283,27939,41837,18193,11076850,20922540,16309,7158,14389,5011,43267,11812,55259,1970.5,26132,5658,9157,2477,40068,5780,82,63,86,32940,1548105
46,655,522058,28.23777963,-80.72697222,HomeGoods,"2314 Remi Dr, Melbourne, FL, United States",76914213,Viera,Brevard County,Florida,32940,12009071201,71201,12,9,7360,5168,2192,46957,1812.1,86039,355920,72169,50.5,21503,329833,16086,3424,2001,10159,7256,27080,36369,14898,9832572,18587557,14637,6412,12816,4380,38562,10457,50008,1929.8,23301,5082,8210,2279,35621,5230,84,67,87,32940,1548105
47,65,436436,30.18752975,-85.66929318,HomeGoods,"State Avenue, Lynn Haven, Florida, United States",64815859,Panama City,Bay County,Florida,32405,12005001502,1502,12,5,6034,5038,855,33920,1715.2,53752,84492,46613,41.8,16955,210457,8231,5608,1979,3801,2542,6334,81902,171324,4448604,8209176,9781,4059,8203,3052,27121,8556,53025,2681.2,11449,5052,9010,6066,21603,3907,199,165,205,32405,501459
48,828,257867,28.03892629,-80.6652918,HomeGoods,"Norfolk Drive, Florida, United States",59387114,West Melbourne,Brevard County,Florida,32907,12009071335,71335,12,9,4664,3993,662,104939,2284.5,57379,169142,50412,44.2,46433,234870,30798,11841,1989,13551,8266,12648,138066,249832,14782705,27583164,31002,13602,26285,9173,85447,26116,92551,2014.8,40551,12956,27892,13229,67952,17095,85,82,86,32907,760643
49,1328,527287,29.62730729,-82.38218874,Marshalls,"3965 Plaza Blvd, Ste 40, Gainesville, FL, United States",55354417,Gainesville,Alachua County,Florida,32608,12001001522,1522,12,1,6674,1704,4870,95085,3061.2,37420,11396,32591,24,41250,228984,8271,29175,1987,10231,10847,103187,63137,294724,11679939,19284298,26516,13362,26796,8555,84498,26934,118626,3819.1,18268,5597,60697,17043,52688,16123,136,141,136,32608,1203976
50,1113,454293,30.22129622,-85.8701446,Marshalls,"15611 Sea Turtle Dr, Panama City Beach, FL, United States",64624823,Panama City Beach,Bay County,Florida,32413,12005002703,2703,12,5,2413,2009,404,15991,949.3,74286,219061,62514,43.3,14493,291338,5145,1911,1998,2850,1255,54188,42301,113058,2987375,5815781,4947,2130,4026,1588,13198,3984,18604,1104.4,7540,2033,3280,596,12833,1396,149,132,151,32413,323072
51,232,375449,28.03888338,-80.66485967,Marshalls,"205 Palm Bay Rd NE, West Melbourne, FL, United States",49745493,West Melbourne,Brevard County,Florida,32907,12009071335,71335,12,9,4664,3993,662,108911,2261,57184,168057,50283,44,47843,233985,31843,12148,1989,13942,8486,36362,141554,251968,15190954,28346499,32103,14107,27194,9443,88543,27138,97955,2033.6,41966,13432,29057,13980,70235,17884,86,84,86,32907,760643
52,1020,335028,28.55145091,-80.84290999,Marshalls,"Windover Trls, Titusville, Florida, United States",341222565,Titusville,Brevard County,Florida,32780,12009061202,61202,12,9,3313,2648,665,34655,1282,57406,188492,50428,48.2,16681,234864,11680,3497,1983,4962,2834,1565,7075,122352,5294921,10078652,10201,4486,8700,3246,28575,8724,33175,1227.3,14475,4547,8355,3069,26418,3499,128,150,124,32780,674634
53,249,745427,35.92612102,-84.05038172,T.J. Maxx,"Knoxville, TN, United States",269230937,Knoxville,Knox County,Tennessee,37919,47093004403,4403,47,93,5261,3667,1534,72585,2043.5,71721,100071,58668,38,35602,274623,16963,16073,1984,16866,12177,158907,257176,243457,15731997,27610370,21912,9110,20137,7187,59392,17359,100387,2826.2,29847,7391,20453,4884,56667,5028,165,144,169,37919,1042664
54,,640877,35.20680554,-84.85005376,T.J. Maxx,"300 Paul Huff Pkwy, Cleveland, TN, United States",228563417,Cleveland,Bradley County,Tennessee,37312,47011010100,10100,47,11,5475,4411,867,45621,1197.1,59384,95348,51125,39.4,18924,216468,10212,7559,1984,6397,3835,54442,28834,132498,6384470,11879730,13628,5977,11457,3913,37071,11503,54468,1429.3,19786,4106,11981,2777,35883,4234,194,174,197,37312,696631
55,215,500491,35.13082689,-85.24237553,T.J. Maxx,"Hixson Pike & Rte 153, Chattanooga, TN, United States",19226332,Chattanooga,Hamilton County,Tennessee,37343,47065010432,10432,47,65,6913,5574,1292,52682,1284.3,64981,155448,54777,43.6,24198,242439,14934,7522,1975,9800,4761,25900,83925,163822,9118200,16949032,15419,6692,13679,4890,42340,12352,60813,1482.5,21597,5503,12969,7711,38367,3265,177,169,179,37343,995897
56,118,394611,36.2929558,-86.7005579,T.J. Maxx,"1627 Gallatin Pike/Road N, Goodlettsville, TN, United States",183406876,Nashville-Davidson,Davidson County,Tennessee,37115,47037010401,10401,47,37,4734,3275,1447,52304,1656.1,54580,56957,47219,37.5,24268,247594,9992,12316,1981,6395,3125,70623,165232,153301,7448796,13310894,14838,6222,12362,4772,40888,13377,53007,1678.3,17393,6940,15639,16050,24734,9596,158,211,149,37115,592322
57,585,327611,36.07580319,-86.92191319,T.J. Maxx,"Nashville, TN, United States",82393086,Nashville-Davidson,Davidson County,Tennessee,37221,47037018411,18411,47,37,3440,2625,815,55112,1596.6,93346,235676,77243,40.7,27488,373568,16007,9399,1986,14411,10086,19754,71579,91523,15882770,27839020,16364,6765,16150,5609,44181,12447,41968,1215.8,24603,4315,14398,4438,43192,2991,102,134,96,37221,1292175
58,380,192587,35.03692797,-85.15375197,T.J. Maxx,"2200 Hamilton Place Blvd Ste 2, Chattanooga, TN, United States",254145702,Chattanooga,Hamilton County,Tennessee,37421,47065011446,11446,47,65,4863,4085,778,48894,1398.3,62665,97405,53594,41.7,22270,243696,10529,10080,1987,8156,4410,123295,134254,181654,8271226,14889263,14686,6218,12952,4397,40142,11909,82509,2359.7,19178,4996,14514,10802,29243,4852,240,205,247,37421,1171736
59,359,501003,35.92631903,-84.04940438,HomeGoods,"8079 Kingston Pike, Knoxville, TN, United States",148273201,Knoxville,Knox County,Tennessee,37923,47093004403,4403,47,93,5261,3667,1534,71641,2063.9,71174,97775,58372,38,35284,274191,16649,16048,1984,16595,12008,161636,257112,235863,15516008,27214874,21616,8990,19862,7108,58670,17169,100356,2891.2,29291,7348,20326,4865,55887,4966,167,146,171,37923,662644
60,195,315205,35.03565483,-85.15422286,HomeGoods,"2200 Hamilton Place Blvd, Chattanooga, TN, United States",254113377,Chattanooga,Hamilton County,Tennessee,37421,47065011446,11446,47,65,4863,4085,778,48484,1413,66251,112063,55772,42,21749,251052,10773,9403,1989,8570,4630,118168,130216,176508,8408249,15159402,14632,6164,12986,4308,39840,11726,78782,2296,19351,4809,14217,10222,29734,4368,228,192,235,37421,1171736
61,408,266647,36.08116861,-86.94533,HomeGoods,"8145 Sawyer Brown Rd, Nashville, TN, United States",82063453,Nashville-Davidson,Davidson County,Tennessee,37221,47037018412,18412,47,37,4044,2452,1583,43299,1742.3,87270,202053,72325,40.7,21953,337797,12579,7776,1988,10778,7527,6618,32927,81211,11111154,19534751,12915,5320,12386,4454,34823,9983,31800,1279.6,18485,3813,11630,3882,33182,2481,108,142,102,37221,1292175
62,1074,226016,35.20786186,-84.84919388,HomeGoods,"300 Paul Huff Parkway, Cleveland, TN, United States",228563417,Cleveland,Bradley County,Tennessee,37312,47011010100,10100,47,11,5475,4411,867,41612,1325.8,60139,98041,51561,39.4,17203,215393,9352,6849,1985,5915,3542,49111,26326,129037,5864572,10915022,12463,5420,10480,3598,33800,10459,48179,1535.1,18120,3650,10894,2531,32714,3858,198,177,202,37312,696631
63,247,667805,35.90036903,-84.16504292,Marshalls,"11455 Parkside Dr, Knoxville, TN, United States",267060194,Farragut,Knox County,Tennessee,37934,47093005803,5803,47,93,3466,2865,601,32711,1214.1,101936,405956,83745,45.9,13199,356097,10239,2316,1989,8315,5774,102623,182372,161628,7375779,13643892,9899,4138,9159,2743,25694,6760,54257,2013.7,17144,2726,5574,974,26898,1666,108,100,110,37934,947673
64,856,561367,36.00560161,-84.02129132,Marshalls,"Clinton Highway, Knoxville, Tennessee, United States",255295651,Knoxville,Knox County,Tennessee,37912,47093004800,4800,47,93,5700,5035,665,73565,1546,57397,109285,50033,38.5,32342,202018,19876,10531,1983,10354,5996,38940,91968,255105,10411553,19193675,21574,9158,17619,6671,57210,18187,70450,1480.5,29367,7449,19330,7073,55480,6874,142,130,144,37912,340013
65,1262,498539,36.06464859,-87.38214268,Marshalls,"202 Thorton Dr, Dickson, TN, United States",98008626,Dickson,Dickson County,Tennessee,37055,47043060602,60602,47,43,6850,5499,1346,19087,408.5,54275,101829,46991,38.8,8276,196701,4988,2843,1983,1716,1042,8111,35466,42195,2595377,4847899,5339,2327,4163,1657,14664,4854,24036,514.4,7159,2237,4751,1249,15472,1400,156,159,156,37055,505930
66,394,404148,35.03060566,-85.1603834,Marshalls,"2040 Hamilton Place Blvd, Ste 300, Chattanooga, TN, United States",265867514,Chattanooga,Hamilton County,Tennessee,37421,47065011446,11446,47,65,4863,4085,778,34663,1530.1,61248,85922,52658,41.7,16129,244022,6941,7877,1989,6032,3143,117752,126549,171435,5956167,10643253,10422,4396,9363,3127,28669,8464,63548,2805.2,13097,3774,10737,7814,20337,3412,268,219,276,37421,1171736
67,395,357338,36.18078371,-86.63873721,Marshalls,"3135 Lebanon Pike, Ste 106, Nashville, TN, United States",17115615,Nashville-Davidson,Davidson County,Tennessee,37214,47037015501,15501,47,37,3151,1892,1030,61626,2019.6,69128,105308,57170,38.2,30063,271991,14878,12927,1983,12971,4865,14803,88340,160008,11658099,20636369,18279,7647,15660,6043,49135,15306,65226,2137.5,23246,6658,18226,11352,39316,6758,161,218,151,37214,731378
68,1487,346149,36.058481,-89.38297864,Marshalls,"384 US-51, Dyersburg, TN, United States",284646156,Dyersburg,Dyer County,Tennessee,38024,47045964200,964200,47,45,5691,4424,1261,20632,412.8,50216,72170,43072,41,9275,152068,4640,3704,1975,1861,1169,8003,13529,38396,2698541,5239728,5847,2563,4420,1786,16163,5408,25270,505.6,8717,2028,4473,4450,14384,825,218,245,213,38024,412493
69,815,319111,35.15531384,-85.2457901,Marshalls,"5756 TN-153, Hixson, TN, United States",14114168,Chattanooga,Hamilton County,Tennessee,37343,47065010431,10431,47,65,7152,5763,1234,14695,1363.7,58211,124205,50654,41.9,6749,221471,4156,2049,1976,2118,1114,22346,37068,85922,2268484,4209623,4282,1871,3715,1351,11668,3480,18049,1675,5859,1392,3637,1788,10744,1252,208,203,209,37343,995897
70,1005,256613,36.13668573,-86.89025267,Marshalls,"6806 Charlotte Pike, Nashville, TN, United States",285263075,Nashville-Davidson,Davidson County,Tennessee,37205,47037018201,18201,47,37,3316,2535,781,52747,1931.1,81293,144365,66598,38.5,27710,401531,13902,11146,1977,12707,8645,28726,132131,58078,14421856,25246437,15271,6505,14561,5342,42535,12631,48287,1767.8,21429,4296,16404,5703,38334,4610,157,222,146,37205,1606718
71,1456,247037,36.17549394,-82.79590644,Marshalls,"1355 Tusculum Blvd, Greeneville, TN, United States",136297239,Greeneville,Greene County,Tennessee,37745,47059090300,90300,47,59,5439,4330,1104,20606,607.8,45515,90741,39583,43.2,9251,174101,5153,3064,1974,2317,1445,6644,10355,42179,2382652,4549389,5976,2607,4837,1793,16948,5476,29371,866.3,7657,3210,5174,934,17522,1377,141,114,146,37745,276933
72,1021,241529,36.03737298,-83.8873844,Marshalls,"New Harvest Lane, Knoxville, Tennessee, United States",108238052,Knoxville,Knox County,Tennessee,37918,47093004300,4300,47,93,2939,2179,760,50443,1469.8,48753,75142,41564,41.1,23878,196653,12769,9192,1965,6728,3735,20029,50223,166259,6706354,12601306,14648,6071,11591,4587,39904,12765,47953,1397.3,18621,5942,13759,9000,34899,3731,168,177,167,37918,855761
73,1101,1134979,25.65297847,-80.41389258,T.J. Maxx,"13580 SW 120th St, Miami, FL, United States",212476222,Miami,Miami-Dade County,Florida,33186,12086019402,19402,12,86,5568,5133,435,206380,5927.4,77599,151371,64216,38.8,72097,347217,44443,25468,1989,35292,17274,71700,170155,387504,30730780,54289583,61611,24766,53283,14190,164967,49974,174118,5000.8,87203,19574,56519,9734,55222,168267,68,55,70,33186,1683076
74,330,817421,30.49295275,-87.22688285,T.J. Maxx,"6625 North Davis Highway, Florida, United States",189039533,Pensacola,Escambia County,Florida,32504,12033001202,1202,12,33,4079,3195,855,65917,2144.7,51079,45724,43363,37.4,30260,209031,13089,14217,1979,8588,4791,85242,137788,274194,8736114,15753172,19305,8134,16103,5845,54090,16618,81412,2648.8,20512,7117,25290,15679,39420,5170,133,143,132,32504,476282
75,1103,802937,26.58756608,-80.14509673,T.J. Maxx,"6330 Lantana Rd, Lake Worth, FL, United States",293989508,Lake Worth,Palm Beach County,Florida,33463,12099005917,5917,12,99,4809,4592,217,222284,4184.3,70971,232572,59139,44.6,91501,302645,62954,20133,1989,34290,19159,28288,66496,161853,37736128,65267495,66475,27168,54866,17573,177111,52884,167631,3155.5,91975,20676,57037,39454,110160,72244,59,51,60,33463,1147244
76,20,768982,28.55369117,-81.19964538,T.J. Maxx,"391 N Alafaya Trl, Orlando, FL, United States",14920346,Orlando,Orange County,Florida,32828,12095016741,16741,12,95,3109,1746,1363,100242,3743.3,62831,68379,54151,30.2,36208,276116,17851,16252,1995,13825,6573,60149,102284,154766,13458688,22861394,29972,12445,26030,7530,82433,26941,93041,3474.4,32369,8613,41361,10927,46679,41141,86,80,87,32828,1690580
77,98,697556,26.15151895,-80.32182243,T.J. Maxx,"12801 W Sunrise Blvd, Sunrise, FL, United States",116833776,Sunrise,Broward County,Florida,33323,12011060120,60120,12,11,6817,6071,746,104460,4092,80802,181230,66546,41.3,42145,309002,27545,11797,1987,18471,9772,195179,231565,216547,18380540,32600513,31726,12777,27218,8542,83789,25104,99844,3911.2,43682,11397,26904,18166,43525,42034,86,45,93,33323,712461
78,711,629904,30.50322099,-84.24983703,T.J. Maxx,"3425 Thomasville Rd Unit 18, Tallahassee, FL, United States",162771870,Tallahassee,Leon County,Florida,32309,12073002410,2410,12,73,6838,5526,1286,63876,1548.2,77829,177711,65276,40.7,30477,314312,16566,11595,1984,14461,13501,29099,174065,211864,14792676,26032305,19305,8322,18134,6117,52412,14669,79263,1921.2,26714,6808,17923,11608,43273,4312,126,97,130,32309,891609
79,424,596128,25.74593131,-80.33410972,T.J. Maxx,"8546 SW 24th St, Miami, FL, United States",77570547,Coral Way Village,Miami-Dade County,Florida,33155,12086007709,7709,12,86,3515,3283,221,237182,6316.7,64661,111178,55219,43.8,88196,366109,47209,36844,1974,39829,20681,317523,372208,492492,35052221,61023835,75195,29309,60174,14854,197213,63354,257401,6855.1,93279,28508,67269,3636,62029,208404,101,82,105,33155,1163633
80,710,592478,26.31583737,-80.15573678,T.J. Maxx,"3812 W Hillsboro Blvd, Deerfield Beach, FL, United States",188727054,Deerfield Beach,Broward County,Florida,33442,12011010402,10402,12,11,3470,2518,952,133860,4308.5,65906,156675,56201,46,66011,328532,36430,20635,1984,26302,13823,43267,237698,252807,25454284,44866979,40904,16746,35757,12409,110909,32994,135435,4359.2,53984,15141,36555,18325,71703,30334,70,52,74,33442,535276
81,593,584261,25.86853738,-80.29271011,T.J. Maxx,"499 W 49th St, Hialeah, FL, United States",65691678,Hialeah,Miami-Dade County,Florida,33012,12086000718,718,12,86,4613,3909,615,236468,7183.2,42251,26285,36569,43.6,84730,303682,35253,46600,1972,22547,8938,197764,386329,982301,22442880,38491488,76246,29442,53833,12770,193779,68750,246151,7477.3,91599,26590,66933,9334,58231,216063,100,81,103,33012,1004979
82,47,502766,30.42708329,-86.64275731,T.J. Maxx,"417B Mary Esther Blvd, Fort Walton Beach, FL, United States",41261666,Fort Walton Beach,Okaloosa County,Florida,32548,12091021902,21902,12,91,6690,5254,1436,53207,3237.4,57861,81340,50815,39.3,24503,244361,11606,10919,1980,7134,3902,24902,127212,159652,8298634,14903577,15947,6858,13513,4875,42593,13221,60373,3673.4,19911,6604,14584,6715,32707,8679,97,84,99,32548,422245
83,1531,487096,25.48055461,-80.44006876,T.J. Maxx,"2605 NE 10 Court, Homestead, FL, United States",65248779,Homestead,Miami-Dade County,Florida,33033,12086011003,11003,12,86,4986,4506,446,144067,4787.1,53430,49183,46364,31.7,46218,288343,20885,23236,1997,13557,5830,41514,41432,111749,14858454,25637702,39107,15151,29825,9299,102317,35281,117241,3895.7,48565,11278,44060,26173,38430,101535,158,253,142,33033,1020027
84,645,486906,29.1655025,-82.17087219,T.J. Maxx,"2701 SW College Rd, Ste 800, Ocala, FL, United States",222940755,Ocala,Marion County,Florida,34474,12083001600,1600,12,83,3868,1863,548,47745,1166,48682,45113,41146,41.7,21623,216772,8403,10764,1984,6114,3636,74919,173631,285283,6517709,11771295,13828,5878,11146,3912,38336,11971,92685,2263.5,15290,5484,15043,9981,26785,9064,196,190,197,34474,290478
85,641,483380,27.94218865,-82.32392391,T.J. Maxx,"2520 W Brandon Blvd, Brandon, FL, United States",66131749,Brandon,Hillsborough County,Florida,33511,12057012212,12212,12,57,3426,2630,796,130364,2951.9,61730,63589,53594,34.9,53695,224697,22936,27916,1995,19647,8670,166954,221721,346649,19438528,33770932,38077,15880,31656,10857,101763,32863,154073,3488.8,44321,14548,42125,28467,57799,41121,115,133,112,33511,1203814
86,84,474058,26.20787927,-81.76659535,T.J. Maxx,"5018 Airport Pulling Rd N, Naples, FL, United States",59046887,Naples,Collier County,Florida,34109,12021010432,10432,12,21,3535,2910,625,47398,1590.1,96760,331692,80345,56.3,30797,460461,15186,7399,1992,11892,7761,189353,293955,317458,15180396,26699684,14883,5930,14287,4829,41165,11462,83837,2812.6,24569,4998,8635,1027,38293,7193,89,61,94,34109,822315
87,1387,471527,26.72314373,-80.09031477,T.J. Maxx,"I 95, West Palm Beach, Florida, United States",99039889,West Palm Beach,Palm Beach County,Florida,33409,12099001802,1802,12,99,3550,2409,1116,122912,4120.9,55698,53478,48932,37.7,58864,274780,21204,29903,1983,16867,10028,140009,275687,370958,20030083,34661030,35789,14339,29339,10708,97590,31909,162858,5460.2,37976,12980,44693,41530,44189,37511,183,213,178,33409,566955
88,272,468333,30.31812252,-81.49467181,T.J. Maxx,"11824 Atlantic Blvd Ste 100, Jacksonville, FL, United States",88497948,Jacksonville,Duval County,Florida,32246,12031014344,14344,12,31,4486,3866,620,96016,2819.4,75922,130355,61818,35.8,40211,262664,22711,15158,1993,16696,7989,40890,139452,318545,16999600,30280635,28607,11552,24438,8105,74900,23327,80756,2371.3,38257,9633,26762,15296,54297,13819,107,94,110,32246,1292570
89,33,462091,26.54322828,-81.87297893,T.J. Maxx,"7191 Cypress Lake Dr, Fort Myers, FL, United States",71966394,Villas,Lee County,Florida,33919,12071001709,1709,12,71,2250,1466,784,101565,2284.9,63492,180617,54375,50.8,59493,273743,31054,16464,1987,17691,11298,114078,345803,408921,20294908,35924510,30572,13012,27403,10301,86330,24836,146945,3305.8,41841,13764,24306,7801,72603,17844,95,88,96,33919,677526
90,1167,440521,28.34259836,-81.43024952,T.J. Maxx,"2551 W Osceola Pkwy, Kissimmee, FL, United States",181527658,Kissimmee,Osceola County,Florida,34741,12097042100,42100,12,97,10946,9276,1670,90258,3844.8,50338,25574,42966,34.3,36189,268051,11677,19677,1995,11817,5494,69706,121593,237186,10304245,17824153,26274,10380,22079,7118,69735,22411,90364,3849.3,32755,8712,28407,8131,28101,55348,122,124,122,34741,720665
91,1037,437395,25.94449895,-80.16804489,T.J. Maxx,"1650 NE Miami Gardens Dr, North Miami Beach, FL, United States",176131830,Miami,Miami-Dade County,Florida,33179,12086000222,222,12,86,4041,3505,536,157957,7623.4,54190,67557,46954,38.6,66073,304071,29467,28033,1971,20281,10884,368804,219046,285157,22191848,38768356,44431,16203,39020,12025,123928,37486,163388,7885.5,56199,13651,52119,63034,40997,57671,145,147,144,33179,882319
92,1066,436022,28.85592895,-82.38808677,T.J. Maxx,"2675 E Gulf To Lake Hwy, Inverness, FL, United States",68589616,Inverness,Citrus County,Florida,34453,12017450705,450705,12,17,5066,4032,1034,24636,428.1,54778,188667,47089,58.8,12860,206183,8790,2285,1988,2601,1485,1486,24539,66425,3951528,7132958,7067,3193,6694,2372,21370,6250,30619,532,11592,2842,4845,838,21023,1593,71,67,72,34453,133461
93,1445,433619,27.9343907,-82.5041293,T.J. Maxx,"3718 Henderson Blvd, Tampa, FL, United States",332295985,Tampa,Hillsborough County,Florida,33609,12057006000,6000,12,57,5631,4699,917,136328,4651.1,78742,112752,65084,39.6,67006,384058,32238,28836,1979,30952,21221,299050,308866,263824,35205523,61531711,41320,16974,40779,13080,113599,34494,249449,8510.4,50204,15674,45627,12489,88161,32551,84,99,82,33609,918658
94,1547,432420,26.05054556,-80.1584286,T.J. Maxx,"1730 S Bearing St., Dania Beach, FL, United States",70115904,Dania,Broward County,Florida,33004,12011080200,80200,12,11,1068,913,155,195737,4152.1,58258,73084,50957,42.1,92189,327312,39211,40865,1970,28250,16495,114754,360051,518861,31405883,55575398,57920,23238,50842,17487,158485,48917,229582,4870,69345,23430,61418,44292,84952,70484,149,127,153,33004,289882
95,290,426394,28.09657182,-82.50415771,T.J. Maxx,"15740 N Dale Mabry Hwy, Tampa, FL, United States",66991643,Tampa,Hillsborough County,Florida,33618,12057011524,11524,12,57,4910,3542,1338,72756,2283.8,84564,256698,71110,45.3,31171,321344,20769,8888,1984,15877,9007,18257,77673,124616,16137277,28907617,22582,9183,20705,6549,60458,16945,68422,2147.7,32399,7773,18824,5023,44182,22573,65,58,66,33618,768864
96,1522,425778,27.3912488,-82.45129698,T.J. Maxx,"8219 Cooper Creek Blvd, University Park, FL, United States",59807068,Bradenton,Manatee County,Florida,34201,12081000810,810,12,81,5389,4156,1233,20683,1111.5,82401,323855,68686,57.4,12548,354448,7393,3059,1994,4989,3884,167419,145351,174544,5900150,10509040,6389,2657,6116,2343,18159,4831,31561,1696.2,10318,2282,3917,722,16821,2179,81,55,85,34201,97008
97,1039,424396,26.4087816,-81.80781382,T.J. Maxx,"8014 Mediterranean Dr, Estero, FL, United States",147121272,Rapallo at Coconut Point,Lee County,Florida,33928,12071050316,50316,12,71,2332,1867,465,55851,1697.7,85835,462510,72166,61.4,38265,367733,22470,4061,1999,11702,8414,95691,104549,189842,15533785,27882304,17091,7274,15778,5834,49190,13717,66481,2020.9,33001,4548,8404,791,45321,8965,96,59,102,33928,746411
98,719,420282,27.17634489,-80.23343587,T.J. Maxx,"2377 SE Federal Hwy, Stuart, FL, United States",23428810,Stuart,Martin County,Florida,34994,12085001000,1000,12,85,6405,3948,1791,59032,2023.4,69321,196593,57212,50.5,30021,299480,18022,7719,1983,9017,5365,41513,115025,225364,11556265,20337846,18018,7563,15201,5568,49405,14378,77121,2643.5,24183,7954,14113,3489,43315,11392,78,61,81,34994,299814
99,829,420064,26.67048683,-80.20063747,T.J. Maxx,"320 S State Rd 7, West Palm Beach, FL, United States",332716417,West Palm Beach,Palm Beach County,Florida,33411,12099007778,7778,12,99,7816,6946,870,84714,2476.6,92234,292754,77279,40.7,32997,364962,22409,7755,1996,15551,9407,161760,115723,244528,17011074,29989991,25176,10379,23080,6737,66713,19657,86284,2522.5,37433,7531,21008,15930,43107,22618,83,66,86,33411,1756122
100,37,417530,26.00591221,-80.29370672,T.J. Maxx,"11030 Pines Blvd, Pembroke Pines, FL, United States",152223564,Pembroke Pines,Broward County,Florida,33027,12011110337,110337,12,11,7723,5617,2106,183492,5562.9,69471,126321,57837,39.7,72925,314638,42728,26154,1990,25311,15419,247546,137393,173057,29003942,50514736,55388,22572,46066,14434,146459,44831,154495,4683.8,67974,17870,58466,49976,50266,86552,72,56,75,33027,1708762
101,647,414246,30.17392564,-81.62531711,T.J. Maxx,"11111-16 San Jose Blvd, Jacksonville, FL, United States",67575475,Jacksonville,Duval County,Florida,32223,12031016808,16808,12,31,4055,3067,988,65610,2481.7,75836,188209,62191,43.8,28572,269810,17695,9168,1986,12877,6941,14544,68605,113646,12291932,22203112,19913,8388,17764,5764,53196,15175,64851,2453,30199,6535,15048,6093,46530,8034,82,66,85,32223,769053
102,269,404350,26.09446672,-80.24687382,T.J. Maxx,"2040 S University Dr, Davie, FL, United States",40315165,Plantation,Broward County,Florida,33388,12011070204,70204,12,11,5983,3212,1597,135831,3712.4,77434,134860,63448,39.4,56822,356971,31484,21306,1983,25027,14466,131799,162653,314624,25410958,44404518,41060,16696,36024,11414,109690,32764,137389,3755,51296,15447,41565,16828,65134,52191,120,70,128,,
103,1331,403661,28.3437306,-81.61100861,T.J. Maxx,"3219 Rolling Oaks Blvd, Kissimmee, FL, United States",53058947,Kissimmee,Osceola County,Florida,34747,12097040805,40805,12,97,1379,1148,231,25658,891.4,63787,88258,54920,35.9,16239,305835,5542,4626,2001,5220,1938,9903,2939,28217,3979246,6890739,8103,3119,6891,2188,20246,6211,29051,1009.3,10101,2164,8117,1649,14493,8541,237,255,234,34747,755059
104,1415,398704,24.56895824,-81.76467933,T.J. Maxx,"3240 N Roosevelt Blvd, Key West, FL, United States",42140355,Key West,Monroe County,Florida,33040,12087971900,971900,12,87,6124,3787,1521,31335,3822.2,73760,90832,62868,43.2,16074,629755,5410,7855,1971,5075,3587,26048,14897,61080,6431539,11210494,9340,4022,9668,3198,26309,7846,32408,3953.1,12957,4028,8571,3607,20109,8034,79,36,86,33040,841154
105,391,388285,26.36939616,-80.18476253,T.J. Maxx,"8903 Glades Rd, Boca Raton, FL, United States",298527723,Boca Raton,Palm Beach County,Florida,33434,12099007768,7768,12,99,1582,1328,254,127096,3433.6,84316,325819,70547,51.3,59604,363192,40624,12131,1985,29498,18673,259389,182961,178505,30345827,53144238,39674,16595,35424,11622,106794,29744,124665,3367.9,57629,13297,29738,7008,83647,25375,42,27,45,33434,503666
106,1270,384661,30.62725796,-81.54318296,T.J. Maxx,"463899 State Road 200, Yulee, FL, United States",68353181,Yulee,Nassau County,Florida,32097,12089050306,50306,12,89,7537,6284,957,23625,797.3,80930,245678,66915,42,10034,298340,7611,1644,2004,3466,2402,2376,10577,34229,4045712,7621269,6925,2914,5844,2125,18637,5467,19380,654,12003,2273,4259,1489,19534,1519,81,77,82,32097,523917
107,1297,361127,27.53392359,-82.5001003,T.J. Maxx,"US-301, Ellenton, FL, United States",45826626,Ellenton,Manatee County,Florida,34222,12081001907,1907,12,81,5142,4297,845,45241,1670.2,72101,264227,58676,48,21025,258142,15307,2959,1999,5854,2656,43368,38720,63505,7597830,13558933,13287,5717,10798,3941,36175,11210,40883,1509.4,21247,4513,8554,4658,31853,7858,87,103,85,34222,237785
108,377,358812,25.93157044,-80.13307806,T.J. Maxx,"3809 NE 163rd St, North Miami Beach, FL, United States",175737615,North Miami Beach,Miami-Dade County,Florida,33160,12086000128,128,12,86,3393,2798,595,113830,8125.6,60001,81364,52264,41.5,64640,377671,23453,23070,1976,18671,12528,167509,106454,212870,21168330,36829961,32906,12614,30835,10008,92256,26964,125185,8936.1,44110,11483,33427,24537,43789,47871,140,124,143,33160,1212528
109,1443,358548,25.84220634,-80.36722567,T.J. Maxx,"7250 NW 104th Ave, Miami, FL, United States",45406176,Miami,Miami-Dade County,Florida,33178,12086009040,9040,12,86,4641,4303,338,101757,3399,80091,100751,66005,39.1,37588,411042,16212,17592,1998,17849,13059,382911,612540,741663,15978500,27531248,30731,12617,25919,7187,79349,24866,182062,6081.4,44517,9129,25602,1451,24094,88057,96,41,106,33178,1372294
110,1380,357749,25.77152352,-80.3586794,T.J. Maxx,"10001 W Flagler St, Miami, FL, United States",63410070,Fountainbleau,Miami-Dade County,Florida,33174,12086009029,9029,12,86,4322,3745,577,190959,6641.8,59531,91053,51838,43.2,67525,333333,35572,29381,1979,30143,13509,350344,409322,359705,23575997,40842518,61425,23332,46416,10978,158344,52824,220913,7683.6,74405,22865,54890,2730,45404,173818,90,68,94,33174,515972
111,155,345585,28.46601142,-81.45315319,T.J. Maxx,"5295 International Dr, Ste 500, Orlando, FL, United States",47641900,Orlando,Orange County,Florida,32819,12095017001,17001,12,95,4719,2848,1273,82537,3135,55268,24336,48697,32.8,35587,268839,9448,22273,1992,13888,5069,468768,387204,274934,12335802,21056725,23429,9662,20009,6897,64881,20307,147601,5606.3,27659,8790,29018,20158,24116,32790,219,244,215,32819,1015610
112,322,344990,26.24607539,-80.25473906,T.J. Maxx,"1200 N University Dr, Coral Springs, FL, United States",316248915,Coral Springs,Broward County,Florida,33071,12011020320,20320,12,11,5151,4476,665,252638,6157,65554,141439,55800,41.3,98800,292596,60067,33242,1981,37860,19375,159750,181928,212648,38641636,68309972,75541,29848,63161,19713,203044,61265,199097,4852.1,99874,28192,69427,81462,87823,75791,71,59,73,33071,1110148
113,197,342542,26.62472624,-81.94223871,T.J. Maxx,"1502 Del Prado Blvd S, Cape Coral, FL, United States",339867290,Cape Coral,Lee County,Florida,33990,12071010303,10303,12,71,6241,5608,614,110773,2641.7,65075,189505,55214,47.4,52680,270741,33826,11688,1988,14059,6140,19751,109962,263992,17258662,32241249,32532,14227,28165,9797,91547,27811,108481,2587.1,47551,13952,25480,5566,76674,28522,60,40,64,33990,580389
114,291,337427,25.64533932,-80.33584156,T.J. Maxx,"8765 SW 136th St, Miami, FL, United States",65508978,Kendall,Miami-Dade County,Florida,33176,12086008409,8409,12,86,5394,4568,826,143608,3721.4,90417,254880,76162,42.7,55243,471885,34821,17346,1975,27964,21484,320131,240583,291512,32751901,58814435,42491,17097,40290,11417,114986,31595,158313,4102.5,61807,12757,39103,16975,50469,86781,100,100,100,33176,1596780
115,598,335570,30.19218922,-81.74298135,T.J. Maxx,"6001 Argyle Forest Blvd, Jacksonville, FL, United States",58640856,Jacksonville,Duval County,Florida,32244,12031013524,13524,12,31,4038,3387,651,79595,2739.7,60402,85344,52326,35.7,32854,189716,17245,13423,1987,9013,3302,58617,176971,157119,10473167,18768224,22989,9400,18847,6499,60796,19414,76190,2622.5,29458,8374,22356,25773,35540,12334,121,134,118,32244,1021412
116,289,335513,27.99824863,-82.56452435,T.J. Maxx,"7555 Hillsborough Ave, Tampa, FL, United States",83594672,Tampa,Hillsborough County,Florida,33634,12057011613,11613,12,57,6072,4357,1552,116392,3416,59425,86855,52056,38.6,48283,237175,24512,21263,1984,17380,8677,192223,267760,287105,18328568,31990440,34971,13875,29498,9862,94084,30298,168831,4955.1,43164,12449,36779,9100,47213,64084,104,111,102,33634,446029
117,1132,335203,28.53867377,-81.73534444,T.J. Maxx,"Steve's Road, Florida, United States",40126720,Clermont,Lake County,Florida,34711,12069031315,31315,12,69,6051,5016,1035,60327,2464.5,76368,192052,62786,41.5,24838,291291,16255,6747,2002,9662,4843,7198,35838,140074,9687948,17705248,18351,7158,15883,5072,47380,14693,56196,2295.7,27589,5311,13577,6820,37162,13426,104,108,103,34711,1488822
118,841,333353,26.93601626,-80.09159423,T.J. Maxx,"75 E Indiantown Rd, Jupiter, FL, United States",95750794,Jupiter,Palm Beach County,Florida,33477,12099000301,301,12,99,3477,2747,730,69636,2431.9,100008,354428,82615,49.6,37142,434908,22656,7958,1987,16554,10729,39453,110688,191854,20053038,35367171,21285,8837,20117,6812,58432,16242,79905,2790.5,32738,7691,15265,1557,54332,11801,71,46,75,33477,714039
119,392,330921,26.53119923,-80.08904205,T.J. Maxx,"388 N Congress Ave, Boynton Beach, FL, United States",332761647,Boynton Beach,Palm Beach County,Florida,33426,12099006012,6012,12,99,5179,4086,984,179202,4239.2,66845,175169,56358,47.3,87783,287819,49509,25791,1985,29244,16232,101389,159364,169671,33357024,57924203,54564,22737,45052,15911,148478,45292,157876,3734.7,72415,19005,48947,45764,95475,34574,106,105,106,33426,522617
120,1105,330474,29.47775566,-81.2153126,T.J. Maxx,"5260 E Highway 100, Palm Coast, FL, United States",68643201,Palm Coast,Flagler County,Florida,32164,12035060213,60213,12,35,7100,6037,1041,31493,957.9,60132,138437,52220,41.7,13834,257561,8506,4153,2002,3434,2065,1362,6526,26665,4494527,8553929,9275,3904,7961,2780,24564,7701,27935,849.7,12942,3205,7603,4046,22323,3876,128,160,123,32164,722994
121,1438,320118,26.00974618,-80.35720031,T.J. Maxx,"NW 3rd Street, Florida, United States",63553972,Pembroke Pines,Broward County,Florida,33082,12011110333,110333,12,11,6909,6688,221,151691,3938.1,96646,283957,79804,40.6,54695,394460,40347,12604,1995,27268,18474,237329,111209,277096,29599981,52054518,46928,19475,41715,11633,119817,35139,132077,3428.9,68090,11347,40063,27982,43946,79853,64,35,69,,
122,138,318362,27.6385425,-80.38230785,T.J. Maxx,"405 21st St, Vero Beach, FL, United States",215281021,Vero Beach,Indian River County,Florida,32960,12061050401,50401,12,61,3574,2248,1321,56285,1811.1,59187,187972,51182,54.1,31278,268961,18356,7625,1981,8934,5649,71041,83472,114893,11125194,20122956,16456,7297,14110,5353,47710,14315,70919,2282,23610,6962,13386,7042,41003,6526,94,99,93,32960,322916
123,1408,317349,28.81919966,-81.67658074,T.J. Maxx,"16920 US Highway 441, Mount Dora, FL, United States",57514176,Mount Dora,Lake County,Florida,32757,12069030915,30915,12,69,8896,6743,1934,50621,1894.9,56374,132035,49266,48.6,23810,262563,13192,8263,1981,6097,4137,14399,42989,79486,7644223,14099811,14683,6542,11967,4493,41640,13143,58233,2179.9,21273,6309,11608,6267,35163,7929,114,88,118,32757,562285
124,70,309767,26.8431894,-80.07067753,T.J. Maxx,"2430 Pga Blvd, Palm Beach Gardens, FL, United States",338991007,North Palm Beach,Palm Beach County,Florida,33408,12099000703,703,12,99,3510,2985,525,88748,2774.5,89869,277379,75647,49.7,46810,405791,27232,12517,1983,19872,12841,163174,227830,279820,24072538,42974920,27057,11146,24927,8732,74708,21242,112057,3503.2,39405,10277,21712,13255,60410,11121,121,92,127,33408,879215
125,1025,308812,28.93295269,-81.93829386,T.J. Maxx,"620 US-441, The Villages, FL, United States",66312946,The Villages,Lake County,Florida,32159,12069030408,30408,12,69,3369,2363,1006,40842,972.1,53697,276071,45716,70.4,26001,238851,17767,4185,1995,5082,4308,18863,54060,168957,7550327,12593857,13767,6881,9330,4633,37924,10753,48520,1154.9,23839,4855,4234,1348,36169,2420,51,27,55,32159,287395
126,1364,302075,26.44302204,-80.07223489,T.J. Maxx,"1626 S Federal Hwy, Delray Beach, FL, United States",79104116,Delray Beach,Palm Beach County,Florida,33483,12099006502,6502,12,99,4216,2521,1367,104089,3461,77171,208068,63935,52.9,61607,387177,31781,17763,1982,23933,15088,88830,251041,251443,27794285,48892912,32004,13180,29475,10476,89769,25442,149724,4978.4,41945,13127,29308,17811,69145,13556,129,110,133,33483,813788
127,1123,280372,28.51589552,-81.37907899,T.J. Maxx,"80 W Grant St, Orlando, FL, United States",202867908,Orlando,Orange County,Florida,32806,12095018500,18500,12,95,3386,2089,942,139021,4240.3,56413,37454,49730,37.3,66229,311659,22324,37873,1976,24043,11916,152272,270701,296207,24314793,42535705,39446,16249,35841,13308,113142,35932,251275,7664.2,40425,15963,54434,42172,59842,35133,189,206,186,32806,888696
128,1506,276207,28.34613124,-81.482625,T.J. Maxx,"3215  Vineland Rd, Kissimmee, FL, United States",56928432,Kissimmee,Osceola County,Florida,34746,12097040904,40904,12,97,5166,4147,1019,69419,2027.8,55189,37957,48551,34.3,30398,267436,9885,14638,1999,11854,5109,193389,69486,65811,8870011,15448983,20397,8103,17992,5309,54656,17111,95858,2800.1,25795,5872,23107,4532,27310,36153,144,130,147,34746,884746
129,1499,264054,28.39139541,-81.24781724,T.J. Maxx,"11926 Narcoossee Rd, Orlando, FL, United States",88440194,Orlando,Orange County,Florida,32832,12095016802,16802,12,95,14513,13015,1498,56311,2195.2,104693,239448,86793,34.5,20833,364471,13476,5738,2012,13014,7681,7420,3699,81256,11385213,19805992,15747,6510,13990,4340,39980,12736,44212,1723.5,23229,4271,13910,4322,23701,24791,191,160,196,32832,1015784
130,1535,239397,26.60843087,-81.81345361,T.J. Maxx,"9370 Ben C Pratt, Fort Myers, FL, United States",87204962,Fort Myers,Lee County,Florida,33966,12071001209,1209,12,71,2649,1644,1005,83574,1721,58474,79053,51254,37.7,41647,268776,16846,16399,1995,11441,6746,91799,215948,449904,13747563,24148307,23248,9586,20217,7577,65215,20416,118911,2448.7,30490,9780,23409,17756,42085,22155,138,210,126,33966,303355
131,1373,182806,30.26072448,-81.6244509,T.J. Maxx,"3550 University Blvd W, Jacksonville, FL, United States",88035384,Jacksonville,Duval County,Florida,32217,12031016606,16606,12,31,4329,2805,1366,90719,2906.9,56722,68026,49916,41,42468,247116,17851,20571,1974,14898,7980,25006,203045,219866,14888685,26778903,26356,11168,22643,7984,73025,22319,133318,4271.9,33095,10385,26891,15406,52062,15670,170,163,171,32217,464312
132,1340,179403,26.09717542,-80.12949882,T.J. Maxx,"1920  Cordova Rd, Fort Lauderdale, FL, United States",202626102,Fort Lauderdale,Broward County,Florida,33316,12011042302,42302,12,11,1237,506,455,80281,4145,77171,70987,63494,42,49977,477147,16050,24506,1975,18237,12113,53549,107122,185790,23766850,40891898,24724,9779,26341,8915,68960,20527,146840,7581.4,27095,10160,30030,15210,46280,17243,242,160,256,33316,699937
133,791,134530,27.43332377,-82.57887006,T.J. Maxx,"6100 14th St W, Bradenton, FL, United States",166041297,Bradenton,Manatee County,Florida,34207,12081000312,312,12,81,1791,1197,572,103579,3334.6,49246,104869,41677,44.1,53340,149691,26105,17048,1976,10127,5538,15752,196418,261406,13602125,24147621,29630,12885,24384,9053,83254,25997,106832,3439.3,35174,14462,29414,11881,59939,32290,95,114,92,34207,383053
134,1377,112783,25.88796775,-80.16249003,T.J. Maxx,"North Miami, FL, United States",65273307,Miami,Miami-Dade County,Florida,33181,12086001204,1204,12,86,5581,4389,1192,142454,7605.1,56494,61350,49694,38.5,61319,382839,24430,28188,1966,19060,12104,132202,104363,218182,22150405,38665669,40257,14720,36263,11161,112190,34160,140501,7500.9,48695,13170,49685,54304,36905,55137,149,163,147,33181,438862
135,185,569734,26.36580292,-80.17252744,HomeGoods,"8140 Glades Rd, Boca Raton, FL, United States",120717778,Boca Raton,Palm Beach County,Florida,33434,12099007741,7741,12,99,4371,3002,1329,173655,3626.8,82821,297622,69047,50.9,81093,366798,53447,18700,1985,40281,25344,274658,212634,202966,41043756,72099423,54329,22625,49054,15828,146453,41079,165415,3454.7,77986,18110,41779,10397,113520,34929,45,28,49,33434,503666
136,136,485955,26.19937225,-81.80254251,HomeGoods,"Belair Lane, Naples, Florida, United States",82164866,Naples,Collier County,Florida,34103,12021000301,301,12,21,3567,3063,504,54763,1730.6,101993,472940,84940,61.5,42205,597284,19394,7592,1987,14140,10901,264141,350591,294127,19789628,34411291,17399,7278,16124,5777,48670,13448,116331,3676.1,28928,6041,9645,1141,45580,7135,85,51,91,34103,588715
137,189,463562,30.19231757,-81.54927783,HomeGoods,"9041 Southside Blvd Ste 140, Jacksonville, FL, United States",61696247,Jacksonville,Duval County,Florida,32256,12031014413,14413,12,31,5895,5162,733,29727,1684.4,64869,53971,56150,34.9,14730,334861,4958,8658,1990,6587,3921,82007,159441,166158,6442958,10960667,8506,3483,7981,2864,23797,7099,50923,2885.4,11014,3452,9438,5482,15555,4551,125,85,132,32256,1524447
138,171,461838,29.14093156,-82.1923159,HomeGoods,"4414 Sw College Rd, Ocala, FL, United States",44289517,Ocala,Marion County,Florida,34476,12083002505,2505,12,83,6019,4634,1347,35875,991.7,51689,67260,43710,43.2,16205,220579,7388,7115,1993,4617,2704,65692,127228,252283,4961981,8880369,10635,4607,8358,3006,29254,9047,64971,1796.1,12673,4409,9993,6174,20226,7857,173,150,177,34476,386615
139,367,455531,26.43845946,-80.0875143,HomeGoods,"1350 Linton Blvd, Delray Beach, FL, United States",79807376,Delray Beach,Palm Beach County,Florida,33444,12099006906,6906,12,99,5626,2687,2939,147987,3573.7,69792,195560,58453,54.1,84031,339163,45076,23597,1981,30800,19582,165956,340016,404166,35268835,61091538,46317,19974,40175,14511,129228,36999,215621,5207,57213,18671,43699,27283,95172,20518,120,103,123,33444,562514
140,194,453034,26.00951958,-80.29762476,HomeGoods,"11251 Pines Blvd, Pembroke Pines, FL, United States",152198192,Pembroke Pines,Broward County,Florida,33026,12011110309,110309,12,11,7371,5796,1575,196576,5216.7,72385,144960,59657,39.9,76864,325676,46581,26248,1990,28382,17206,249330,148413,211379,32103441,56090771,59411,24207,49747,15386,157012,47732,167514,4445.5,74123,18850,61688,49277,58634,91447,74,54,77,33026,843979
141,429,445372,26.61141935,-81.93928049,HomeGoods,"2301 Del Prado Blvd S, Cape Coral, FL, United States",175101818,Cape Coral,Lee County,Florida,33990,12071010309,10309,12,71,5099,3887,1212,124459,2851.3,63855,177836,54433,47.3,60531,274054,36937,15047,1987,16057,7508,79471,165148,278098,19854455,36875296,36813,16130,31995,11306,103185,31161,125349,2871.7,52233,16308,29371,7890,85130,30437,61,47,64,33990,580389
142,674,432976,27.39095759,-82.45131561,HomeGoods,"I 75, Florida, United States",69253840,Bradenton,Manatee County,Florida,34201,12081000810,810,12,81,5389,4156,1233,18460,1229,83689,339843,69991,58.6,11774,385673,6734,2913,1996,4555,3739,165873,132137,135287,5765550,10179044,5703,2373,5471,2163,16326,4307,27862,1855,9552,1924,3178,617,15242,1743,92,65,97,34201,97008
143,428,428685,26.27045514,-80.2048016,HomeGoods,"3320 NW 62 Ave, Margate, FL, United States",69626778,Pompano Beach,Broward County,Florida,33063,12011020205,20205,12,11,6267,4683,1584,189053,4772.4,68390,140632,57667,41.6,79425,298933,46173,27099,1984,30152,15062,162775,221087,301992,31926838,56034579,57803,23066,48661,15661,152322,45826,172650,4358.3,75169,22016,51181,45837,77417,54385,68,44,72,33063,1045783
144,421,413292,27.92150533,-82.31622451,HomeGoods,"1945 W Lumsden Rd, Brandon, FL, United States",43905207,Brandon,Hillsborough County,Florida,33511,12057013323,13323,12,57,11257,8986,2162,129564,3395.4,63801,80754,55051,35.9,54147,239521,25721,25601,1994,20911,9373,165993,186889,325754,20359959,35715219,38145,15851,32011,10831,101581,31797,129219,3386.3,46335,14072,40148,26226,60624,39504,110,128,107,33511,1203814
145,129,412995,27.17784963,-80.23397274,HomeGoods,"2339 SE Federal Hwy, Stuart, FL, United States",34187763,Stuart,Martin County,Florida,34994,12085001000,1000,12,85,6405,3948,1791,44101,2163,64743,172162,54663,49.3,23144,272000,13064,6419,1981,6077,3894,35634,102500,199404,8387690,14739349,13399,5613,11135,4164,36713,10757,63621,3120.3,17517,6174,10606,2988,31197,9580,87,69,90,34994,299814
146,394,396596,28.12517003,-82.50067145,HomeGoods,"17641 N Dale Mabry Hwy, Lutz, FL, United States",20009298,Lutz,Hillsborough County,Florida,33548,12057011109,11109,12,57,4278,3673,605,59500,1829.9,87897,258937,74007,44.5,24899,330413,15866,7832,1986,13743,7855,17241,77046,126839,13324056,23696038,18293,7474,16805,5146,48975,13662,57262,1761.1,26578,6450,15197,3801,37078,16424,64,58,66,33548,326613
147,319,395674,26.81035612,-80.10442322,HomeGoods,"4405 Northlake Blvd, Palm Beach Gardens, FL, United States",332727170,North Palm Beach,Palm Beach County,Florida,33410,12099000903,903,12,99,5885,5311,574,123193,2778.5,74639,159699,61850,43.4,56004,338329,31240,19167,1985,21985,13410,204931,318479,481259,24572317,44082829,36240,14588,31944,11011,99463,30233,154634,3487.6,47198,13729,35325,38911,61569,17242,150,154,150,33410,1253088
148,358,348545,26.1436978,-80.31846758,HomeGoods,"12670 W Sunrise Blvd, Sunrise, FL, United States",60487880,Sunrise,Broward County,Florida,33323,12011060120,60120,12,11,6817,6071,746,148627,4023.4,79339,175099,65298,42.1,62360,310504,39195,18821,1986,26655,15019,223781,246829,320115,27371398,48335140,45132,18530,38998,12519,120274,35853,141969,3843.1,61628,16752,38444,26675,63467,56800,89,48,96,33323,712461
149,687,343936,25.98144866,-80.35700351,HomeGoods,"Miramar Parkway, Florida, United States",15767467,Miramar,Broward County,Florida,33027,12011110360,110360,12,11,5977,5977,0,141913,4266.9,93534,255432,77710,39.7,51149,394600,36216,12641,1996,23817,16526,102155,61272,136834,26740629,46679717,43304,18124,38457,10742,110731,32853,118465,3561.9,61621,10552,38581,28371,36533,77427,66,44,69,33027,1708762
150,820,342255,27.00886746,-82.13459966,HomeGoods,"Tamiami Trail, Murdock, Florida, United States",69918864,Port Charlotte,Charlotte County,Florida,33954,12015020301,20301,12,15,6071,4358,1691,71570,1391.2,56084,186299,48966,52.3,34647,230983,23327,6717,1984,7582,4222,51631,135707,148162,10142968,19044576,21128,9260,17365,6592,60045,18879,69927,1359.3,32305,8482,14867,5629,54665,8522,86,88,86,33954,200474
151,202,339994,26.04303387,-80.159139,HomeGoods,"Oakwood Boulevard, Florida, United States",182497568,Hollywood,Broward County,Florida,33020,12011080500,80500,12,11,7927,6537,1316,98145,4105.3,58317,72464,51004,42.4,46742,334776,19406,21326,1973,15250,8852,74198,219792,334270,16055911,28453903,29007,11776,25459,8917,79444,24575,120583,5043.8,35663,12237,29193,19931,46447,33919,138,118,142,33020,752846
152,174,339711,26.54326572,-81.87256439,HomeGoods,"Lakes Avenue, Florida, United States",71464262,Villas,Lee County,Florida,33919,12071001709,1709,12,71,2250,1466,784,105536,2185,63604,182043,54449,50.8,61631,274896,32301,16919,1987,18316,11713,115626,354061,421877,21060609,37314970,31699,13494,28406,10663,89627,25833,152207,3151.2,43621,14223,25167,8272,75222,18660,95,88,96,33919,677526
153,,339550,26.72503533,-80.09046643,HomeGoods,"1875 Palm Beach Lakes Boulevard, West Palm Beach, FL, United States",47581668,West Palm Beach,Palm Beach County,Florida,33409,12099001802,1802,12,99,3550,2409,1116,70282,4023.8,53372,33393,46472,36.4,33102,265188,10104,18744,1984,9044,5249,119751,195387,226286,10956456,18935237,20152,8030,16144,5887,55168,18381,107332,6145,19770,7020,27515,27237,22601,20649,211,254,204,33409,566955
154,475,338604,30.26986432,-81.39007952,HomeGoods,"2150 3rd St S, Jacksonville Beach, FL, United States",75279797,Jacksonville Beach,Duval County,Florida,32250,12031014203,14203,12,31,4766,3236,1462,46782,2582.7,101040,265551,82339,43.7,24111,401953,14454,7153,1984,13515,8010,25006,48179,126520,13958094,24869311,14532,6194,14428,4927,39874,11312,52695,2909.2,20919,5896,11716,1488,39651,3095,112,90,116,32250,1122295
155,556,335144,30.51274856,-84.24940791,HomeGoods,"1400 Village Square Blvd, Tallahassee, FL, United States",160367201,Tallahassee,Leon County,Florida,32312,12073002416,2416,12,73,2690,2411,279,61933,1449.6,82229,232026,69025,41.9,28412,332570,16685,9848,1985,14592,13576,28093,157874,199332,14520371,25749517,18790,8028,17752,5825,50408,13860,67888,1589,27343,6186,16119,10181,43174,4025,105,82,109,32312,1244028
156,594,324403,26.48350393,-81.78857966,HomeGoods,"Fort Myers, FL, United States",156138723,Fort Myers,Lee County,Florida,33913,12071040138,40138,12,71,3927,2499,496,30560,1235,84685,276742,70351,37.2,13504,303573,8710,2391,2002,5050,2658,40683,64582,65820,5911053,10373111,9708,3817,8572,2414,25706,8071,35704,1442.9,12732,2074,10596,1148,23554,5522,92,65,97,33913,892249
157,1067,312041,28.53574365,-82.50738891,HomeGoods,"13199 Cortez Boulevard, Brooksville, FL, United States",149310681,Brooksville,Hernando County,Florida,34613,12053040801,40801,12,53,3966,2881,1085,52955,1102.5,55784,174465,48732,49.9,23660,197922,16744,4556,1993,4447,2493,9979,33628,93952,6633695,12507182,15293,6850,12288,4612,43645,13828,50893,1059.5,24044,6205,10996,2653,40172,9365,82,85,82,34613,224915
158,608,308755,30.38946502,-86.43853555,HomeGoods,"Kelly Plantation Drive, Florida, United States",152140209,Destin,Okaloosa County,Florida,32541,12091023304,23304,12,91,4284,2865,1419,15669,1465.5,82340,182936,67669,43.7,13668,410778,4037,2888,1997,3381,2031,74254,75883,123775,3721292,6611341,4863,2027,4821,1493,13082,3556,28161,2633.9,6854,1750,4361,458,12403,1421,137,116,141,32541,586687
159,504,301033,25.80854892,-80.19409305,HomeGoods,"3401-118 N Miami Ave, Miami, FL, United States",182156753,Miami,Miami-Dade County,Florida,33127,12086002600,2600,12,86,7195,5923,1229,284940,9672,44920,14496,38514,37.1,136803,344860,29640,88014,1973,35150,22150,305032,414526,353918,40832607,70342015,84029,30344,65758,22645,225003,78127,351393,11927.6,84585,28209,108756,78534,64822,166687,182,241,171,33127,331029
160,781,255909,30.3181815,-81.49375477,HomeGoods,"11824 Atlantic Blvd Ste 300, Jacksonville, FL, United States",252116747,Jacksonville,Duval County,Florida,32246,12031014344,14344,12,31,4486,3866,620,95552,2836.7,76090,130951,61959,35.8,40003,263167,22612,15072,1993,16665,7983,40683,138809,317586,16947113,30182331,28490,11495,24347,8065,74553,23189,80009,2375.2,38151,9567,26592,15235,54064,13655,107,94,110,32246,1292570
161,737,249352,30.19935294,-81.82823341,HomeGoods,"9625 Crosshill Blvd, Jacksonville, FL, United States",162051921,Jacksonville,Duval County,Florida,32222,12031013723,13723,12,31,9136,7907,1229,48818,2509.6,86394,228869,72188,35.1,17619,249298,13389,3200,2003,6671,2831,7599,7557,57383,7504985,13327036,14053,5640,11776,3683,36064,11757,31231,1605.5,22772,3612,10241,14818,22136,7584,63,56,64,32222,308051
162,720,242747,28.46543125,-81.30425886,HomeGoods,"6719 Eagle Watch Drive Lee Vista Promemade, Orlando, FL, United States",270413571,Orlando,Orange County,Florida,32822,12095013507,13507,12,95,7046,4396,2650,99391,2897.1,56116,70079,49521,37.1,41436,273879,19769,19210,1987,14596,6157,16580,35416,175675,14282805,25016272,29069,11767,23875,8383,78829,25059,88744,2586.8,36558,11110,30565,9395,39571,55649,127,131,127,32822,896154
163,824,240966,30.62694002,-81.54215145,HomeGoods,"463919 State Rd 200, Yulee, FL, United States",99700041,Yulee,Nassau County,Florida,32097,12089050306,50306,12,89,7537,6284,957,24151,799,81066,246068,67058,42.1,10258,299366,7766,1679,2004,3553,2467,2557,10727,34412,4134229,7793218,7074,2985,5976,2166,19063,5583,19756,653.6,12242,2335,4372,1513,19984,1545,81,76,82,32097,523917
164,379,225273,28.45118691,-81.49093846,HomeGoods,"7600 Dr Phillips Blvd Ste 164, Orlando, FL, United States",119230922,Orlando,Orange County,Florida,32819,12095014813,14813,12,95,3424,2577,847,63007,1930.2,88998,215738,74796,40.4,28514,392357,14435,10177,1992,16135,8602,169187,100208,81289,15225339,27448650,19541,8108,18102,5463,50869,14099,116962,3583.1,29540,4944,16760,5705,32811,14304,163,158,164,32819,1015610
165,779,224992,28.54890771,-81.72528837,HomeGoods,"Hunt Trace Boulevard, Florida, United States",181023195,Clermont,Lake County,Florida,32711,12069031320,31320,12,69,6020,5578,428,66176,2268.8,76386,186204,62777,40.2,26985,291154,17691,7301,2002,10184,5233,7572,42559,140815,10528200,19275645,20173,7858,17187,5527,51568,16168,61338,2102.9,30636,5679,14458,7439,40425,15037,101,102,101,,
166,664,216774,28.49443206,-81.43089219,HomeGoods,"4664  Millenia Plaza Way, Orlando, FL, United States",68306556,Orlando,Orange County,Florida,32839,12095014504,14504,12,95,4978,3233,1678,99835,4752.2,45053,14205,38924,31.9,40522,166882,8515,28233,1986,12227,3712,339285,343098,213104,10924810,18713641,26435,10716,21715,8079,76915,24769,119038,5666.2,28083,10970,37989,40430,20659,37540,201,251,193,32839,795286
167,833,207024,27.46369814,-82.63350917,HomeGoods,"4294 71st Street West, Bradenton, Florida, United States",98737909,Bradenton,Manatee County,Florida,34210,12081000409,409,12,81,2827,2185,642,94403,3449.8,55540,167187,48441,51.8,54965,234619,29127,14158,1977,11252,6981,14570,78161,189550,15789657,28139906,28565,12533,24098,9128,79406,23280,87963,3214.5,36273,14240,23535,7012,68440,17643,79,86,78,34210,275950
168,576,205392,28.13186982,-82.36669457,HomeGoods,"18061 Highwoods Preserve Pkwy, Tampa, FL, United States",95386362,Tampa,Hillsborough County,Florida,33647,12057011013,11013,12,57,4163,3112,1051,92151,2513.7,77593,82953,64372,31.9,38896,307331,16963,19809,1998,19407,13714,65073,71603,184044,19358856,33139181,27806,11854,26182,8036,73469,22668,82985,2263.7,37015,7048,30360,15601,42948,18158,74,77,74,33647,2213873
169,743,202822,26.34287079,-81.80516736,HomeGoods,"27251 Bay Landing Drive, Florida, United States",202633082,Bonita Springs,Lee County,Florida,34135,12071050401,50401,12,71,4170,3200,970,48846,1702.5,77946,311049,64364,58.8,35226,377970,16899,6069,1993,9323,6813,74192,189064,214410,12694764,22429544,14851,6364,12892,4950,42238,12208,68260,2379.2,25782,4606,8594,568,36834,11363,107,80,112,34135,921001
170,249,164402,26.26183053,-80.10120799,HomeGoods,"2421 N Federal Hwy, Pompano Beach, FL, United States",42917480,Pompano Beach,Broward County,Florida,33064,12011030203,30203,12,11,4739,4047,692,142840,5229.4,62511,120658,53854,45.7,75206,359001,36108,25447,1972,20948,12137,58258,189411,380263,27732398,49360182,42155,16574,36314,12933,117050,35685,143912,5268.7,52873,16933,42422,36441,69814,29975,148,151,147,33064,1197913
171,482,111883,25.64231842,-80.33253931,HomeGoods,"13619 South Dixie Highway, Miami, FL, United States",95842954,Miami,Miami-Dade County,Florida,33158,12086008206,8206,12,86,3804,3284,515,94810,3355.1,102484,360364,85979,42.9,34694,515698,23572,9105,1975,18763,14966,279276,192071,189456,22761237,40994109,27807,11253,26866,7298,75289,20263,99685,3527.7,41661,7862,25556,12058,35070,53366,99,97,99,33158,329683
172,425,819819,26.6834479,-80.22362638,Marshalls,"11031 Southern Blvd, Royal Palm Beach, FL, United States",188166132,West Palm Beach,Palm Beach County,Florida,33411,12099007812,7812,12,99,5318,4354,957,87540,2479.2,91314,280916,76781,40.8,33238,352303,22749,8079,1991,16204,8827,91598,101023,213263,16764403,29734194,26166,10639,23401,6884,69153,20625,83667,2369.5,37661,8160,22333,16839,44747,23817,75,62,77,33411,1756122
173,1062,702859,27.63733172,-80.44914495,Marshalls,"5915 20th St, Vero Beach, FL, United States",215959159,Vero Beach,Indian River County,Florida,32966,12061050704,50704,12,61,3246,2552,689,62096,1206.4,61029,206770,52455,52.7,31322,269513,20723,7126,1987,9439,4936,40629,71641,125312,10568971,19524135,18385,8453,15181,5880,52141,15555,66333,1288.7,27010,6991,14507,6514,46510,7196,89,97,87,32966,301198
174,1018,650072,28.52103765,-81.58389624,Marshalls,"3349 Daniels Rd, Winter Garden, FL, United States",88312719,Winter Garden,Orange County,Florida,34787,12095017118,17118,12,95,5555,5114,441,60388,1966.1,104816,321365,87288,36.7,21417,385385,15845,4558,2003,12458,7614,48154,145058,112415,13015761,22931404,17210,7544,16106,4708,44016,13361,60657,1974.8,26862,3996,13469,7394,33015,13292,95,79,98,34787,2700884
175,146,622791,25.86463408,-80.31606456,Marshalls,"1700 W 49th St, Ste 3, Hialeah, FL, United States",67178192,Hialeah,Miami-Dade County,Florida,33012,12086000705,705,12,86,4944,4029,884,228354,7240.9,46538,35813,39380,43,81680,303357,35640,43292,1976,24285,9966,210670,570297,1180256,23142294,39716559,71467,29088,53375,12740,186846,64239,262348,8318.8,92268,24884,61960,2905,56218,213488,90,57,95,33012,1004979
176,320,562742,25.74786693,-80.38838071,Marshalls,"11865 SW 26th St, Miami, FL, United States",60148410,Miami,Miami-Dade County,Florida,33199,12086014601,14601,12,86,3296,2684,612,233195,7012.5,67154,158161,56863,43.4,76955,354307,50630,24381,1981,37050,16093,54353,71052,179866,29956648,52414409,72922,29058,59122,13081,193742,61346,187508,5638.6,93805,26161,65727,2821,57501,212416,90,65,94,,
177,1278,559928,28.34226274,-81.41032988,Marshalls,"731 Centerview Blvd, Kissimmee, FL, United States",222347746,Kissimmee,Osceola County,Florida,34741,12097042201,42201,12,97,7478,4901,2467,139934,3885.9,53891,56793,47043,35,52807,260248,22625,24787,1993,17874,8243,76030,142732,283757,16390071,28470564,41183,15695,33550,10260,109134,35321,132367,3675.8,52825,13187,43176,13730,42550,87004,114,118,113,34741,720665
178,285,552525,28.02853219,-82.50300763,Marshalls,"3661 W Waters Ave, Tampa, FL, United States",17663512,Tampa,Hillsborough County,Florida,33614,12057011908,11908,12,57,2295,1620,675,176763,3647.5,57803,83844,50864,39.6,75315,266092,39452,31943,1980,26473,13117,111499,357361,496492,26940491,47715808,52862,20922,44344,15189,141779,45216,216657,4470.7,63936,21599,53366,20113,76988,87638,93,113,89,33614,706456
179,486,548214,26.14945018,-80.32563391,Marshalls,"12801 W Sunrise Blvd, Sunrise, FL, United States",116833776,Sunrise,Broward County,Florida,33323,12011060120,60120,12,11,6817,6071,746,121250,3936.7,82524,191684,68275,41.6,49040,321466,32214,13647,1987,22061,12249,197707,240267,198486,22103747,39235088,36768,14942,31827,10018,97404,28960,112818,3663,51122,13191,30901,19886,52225,48241,83,43,89,33323,712461
180,408,541376,30.27075293,-81.39014639,Marshalls,"1800 3Rd St S, Jacksonville Beach, FL, United States",75818181,Jacksonville Beach,Duval County,Florida,32250,12031014203,14203,12,31,4766,3236,1462,37631,2977,100485,258492,81535,43.6,19958,399174,11875,5859,1984,11331,6409,23819,47116,123322,11361182,20213975,11615,4991,11746,4089,32214,9158,44606,3528.8,16582,4991,9594,913,32356,2405,118,96,122,32250,1122295
181,1010,502202,28.53635626,-82.50622751,Marshalls,"7143 Coastal Blvd, Brooksville, FL, United States",336001132,Brooksville,Hernando County,Florida,34613,12053040801,40801,12,53,3966,2881,1085,37675,1014,55022,181253,47762,51.6,17291,192296,12310,3088,1993,3271,1834,9627,22970,33260,4881366,9041182,10948,4891,8813,3338,31277,9911,37996,1022.7,17757,4407,7126,1801,29049,6267,77,79,77,34613,224915
182,372,483807,25.6861927,-80.42254009,Marshalls,"14093 SW 88 St., Miami, FL, United States",175658528,Kendall Lakes,Miami-Dade County,Florida,32186,12086017402,17402,12,86,5053,4701,343,207689,7230,75603,135709,61751,39.8,73730,342751,43635,27531,1986,37954,16703,84173,175444,314977,30676552,54078436,62607,25020,53554,14054,168338,51091,179305,6241.9,87507,19532,57097,4946,54340,177421,63,53,65,,
183,284,482310,27.94261139,-82.32225189,Marshalls,"2458 W Brandon Blvd, Brandon, FL, United States",175750329,Brandon,Hillsborough County,Florida,33510,12057012212,12212,12,57,3426,2630,796,94500,2822.9,62219,57353,53950,34.5,39982,229117,15521,22244,1996,15208,6830,164677,202172,301354,14678396,25316281,27689,11593,23120,8030,74321,23831,123188,3679.9,31377,10565,31875,20975,42610,28744,120,136,118,33510,583580
184,651,481957,25.93155015,-80.12302813,Marshalls,"16800 Collins Ave, Sunny Isles Beach, FL, United States",176121139,North Miami Beach,Miami-Dade County,Florida,33160,12086000140,140,12,86,3696,2548,1148,127275,8639.8,62213,97715,53751,44,78927,396120,29021,25569,1977,23628,16124,407788,157120,187621,25890096,45254132,37208,14424,35268,11603,104733,30193,146803,9965.4,51058,14391,34426,21862,55151,53312,142,108,148,33160,1212528
185,1332,473033,28.60393079,-81.36809838,Marshalls,"501 N Orlando Ave, Winter Park, FL, United States",88201101,Winter Park,Orange County,Florida,32789,12095019000,19000,12,95,3814,2237,1577,117334,3162.8,72958,108002,60775,40.5,59134,353097,27202,26224,1976,25893,16260,137122,360302,463787,27545022,48251229,34380,14446,33512,11843,96443,28425,201143,5421.9,43386,12166,38600,17775,72267,22926,143,123,146,32789,1471965
186,1269,458671,26.96015233,-80.08295057,Marshalls,"105 N US Highway 1, Tequesta, FL, United States",332737570,Jupiter,Palm Beach County,Florida,33469,12099000102,102,12,99,2956,2184,766,42468,2318.6,97714,417624,80940,54.4,23682,437474,14672,4132,1984,10269,6461,32880,69265,148410,12103276,21403583,13238,5414,12352,4116,36636,10071,52908,2888.6,20601,4853,8979,508,33792,7553,60,36,64,33469,566024
187,1202,453903,27.79620131,-82.33245096,Marshalls,"13120 US Highway 301 S, Ste 101, Riverview, FL, United States",340137786,Riverview,Hillsborough County,Florida,33579,12057013915,13915,12,57,9275,7910,1365,98437,3079.7,85167,223511,70879,34.3,34596,272028,26747,5715,2007,14029,8285,2749,3846,52569,15487315,27233428,26822,11242,23389,7236,70887,23398,67973,2126.6,43538,8114,20027,22963,43955,28427,72,72,71,33579,1088294
188,264,436709,27.39169372,-82.45327833,Marshalls,"8467 Cooper Creek Blvd, University Park, FL, United States",52144268,Bradenton,Manatee County,Florida,34201,12081000810,810,12,81,5389,4156,1233,45416,1324.1,84384,358136,70596,57.5,27191,351541,16943,5362,1994,10372,7870,171621,166848,219977,12694913,22556801,14131,5883,13325,4950,39655,10758,55700,1623.9,23158,4902,8567,1479,36903,4911,81,60,85,34201,97008
189,1019,429195,27.49891405,-81.485903,Marshalls,"1724 US Highway 27 N, Sebring, FL, United States",58591387,Sebring,Highlands County,Florida,33872,12055960700,960700,12,55,3766,2915,822,30181,1216.8,51333,207807,43706,59.9,17501,148339,11260,2647,1985,3249,2045,4372,35951,69149,4489606,8074583,8707,4115,7349,2937,26191,7961,35628,1436.4,15130,3085,5383,2253,21724,5828,83,59,87,33872,158917
190,805,427271,30.44015803,-84.25826912,Marshalls,"1564 Governor'S Square Blvd, Tallahassee, FL, United States",40763382,Tallahassee,Leon County,Florida,32301,12073000903,903,12,73,2190,1209,981,100540,2701.2,54194,23465,46921,28.9,49258,254843,15221,28334,1982,15817,14137,115448,250646,163065,16896663,28810098,28488,12942,27481,9462,85509,26380,155923,4189.2,25180,8707,50840,34395,51692,8727,205,231,201,32301,453773
191,392,424338,25.80987875,-80.19355365,Marshalls,"3401 North Miami Avenue, Miami, Florida, United States",182156753,Miami,Miami-Dade County,Florida,33127,12086002600,2600,12,86,7195,5923,1229,285514,9597.2,45490,14583,38896,37.1,137553,354448,30298,87978,1973,35712,22622,305064,414802,359137,41737189,71925435,83968,30483,66333,22873,225330,77913,352280,11841.5,85015,28296,108619,78401,66624,164951,182,240,173,33127,331029
192,1003,423864,26.48581527,-81.78940397,Marshalls,"10017 Gulf Center Dr, Fort Myers, FL, United States",145398721,Timberwalk at Three Oaks,Lee County,Florida,33913,12071040138,40138,12,71,3927,2499,496,27759,1219.9,84157,260521,69694,35.3,11717,295056,7547,2200,2002,4425,2200,40564,63620,60635,5102658,8938674,8856,3492,7683,2114,23220,7419,33036,1451.9,11063,1855,10092,1096,21205,5190,92,66,97,33913,892249
193,167,415341,26.21278703,-80.10717035,Marshalls,"1401 S Federal Highway, Pompano Beach, FL, United States",316292801,Pompano Beach,Broward County,Florida,33062,12011030902,30902,12,11,3498,2611,838,146363,5080.7,68035,155374,57634,49,85827,416643,40173,27490,1970,24589,17050,109929,360730,484519,33851315,59844434,44709,17959,40880,14552,123486,36452,178781,6206,56077,18685,43131,24022,85709,33982,153,138,156,33062,781385
194,816,414816,25.48042614,-80.46169303,Marshalls,"1099 N Homestead Blvd, Homestead, FL, United States",65263727,Homestead,Miami-Dade County,Florida,33030,12086011011,11011,12,86,4021,3923,98,166347,3929,52973,46033,45773,31.7,53945,288188,24149,26780,1997,14871,6345,41362,43397,139677,17061358,29541853,44858,17549,34527,10799,118258,40690,133461,3152.3,55450,13173,51280,31157,44951,115431,162,263,145,33030,443437
195,509,406771,30.38944671,-86.43912186,Marshalls,"4477 Commons Dr W, Destin, FL, United States",152140209,Destin,Okaloosa County,Florida,32541,12091023304,23304,12,91,4284,2865,1419,15793,1477.8,82414,183904,67744,43.8,13832,411019,4083,2901,1997,3406,2050,74289,76392,123918,3756505,6673745,4900,2042,4860,1506,13188,3582,28267,2645,6913,1769,4385,460,12512,1428,137,116,141,32541,586687
196,176,406080,26.17261584,-81.80103344,Marshalls,"2115 Tamiami Trl N, Naples, FL, United States",86240171,Naples,Collier County,Florida,34103,12021000302,302,12,21,1635,1387,248,47459,1786.5,95592,416196,79848,61,35892,604486,16157,6575,1983,11306,8525,282803,265792,250631,16256011,28199756,14881,6317,13392,4877,41848,11745,95841,3607.8,23966,5504,8862,1448,38332,7323,87,49,93,34103,588715
197,350,403317,27.23554687,-80.26661916,Marshalls,"2475 NW Federal Highway, Jensen Beach, FL, United States",47628474,Stuart,Martin County,Florida,34994,12085000400,400,12,85,7706,6598,1099,42634,2000.5,72448,200830,58698,51.4,21887,288932,13511,5324,1985,6456,3698,88321,127360,131500,8046314,14641567,12582,5389,11245,4090,36003,10451,58178,2729.9,17833,6271,9961,3559,32086,5777,70,54,72,34994,299814
198,325,396312,26.31571519,-80.15697515,Marshalls,"3852 W Hillsboro Blvd, Deerfield Beach, FL, United States",188727054,Deerfield Beach,Broward County,Florida,33442,12011010402,10402,12,11,3470,2518,952,132059,4369.1,65962,157092,56225,46,65159,328551,35902,20379,1984,25953,13663,42369,235725,247023,25135046,44268464,40381,16558,35306,12227,109487,32567,134165,4438.8,53279,14994,36014,17777,70904,29959,70,51,73,33442,535276
199,653,395690,26.84377179,-80.0737879,Marshalls,"2550 PGA Blvd, Palm Beach Gardens, FL, United States",94225982,Palm Beach Gardens,Palm Beach County,Florida,33418,12099000803,803,12,99,3263,2046,1107,88620,2762.1,89990,278929,75731,49.8,46781,405793,27252,12460,1983,19894,12859,162762,227504,279874,24091473,42994165,27041,11148,24923,8728,74632,21210,112795,3515.6,39420,10285,21594,12925,60604,11115,121,90,126,33418,1762238
200,1471,394080,29.13878799,-82.19278881,Marshalls,"4414 SW College Rd S810, Ocala, FL, United States",343417642,Ocala,Marion County,Florida,34474,12083002505,2505,12,83,6019,4634,1347,35475,987.9,51538,67120,43522,43.3,16108,219013,7316,7074,1993,4574,2652,65475,125494,248153,4880415,8719405,10545,4560,8260,2985,28946,8967,61863,1722.7,12534,4364,9877,6111,19987,7786,173,150,177,34474,290478
201,168,393505,26.58642025,-81.86958965,Marshalls,"4995 S Cleveland Ave, Fort Myers, FL, United States",282105692,Fort Myers,Lee County,Florida,33907,12071001300,1300,12,71,3277,2331,750,79708,2710.4,55615,79465,48648,42.2,43039,260143,17803,18078,1984,11688,7048,99404,255553,304827,13862671,24502801,23267,9718,19940,7967,64622,19617,124243,4224.8,27907,10748,22518,13026,45629,18683,113,146,108,33907,391872
202,511,392484,28.49535372,-81.43035435,Marshalls,"4648 Millenia Plaza Way, Orlando, FL, United States",67604186,Orlando,Orange County,Florida,32839,12095014504,14504,12,95,4978,3233,1678,113722,4121,45605,14526,39268,32.2,46114,172371,10499,31235,1985,14152,4454,463100,381337,271502,12673805,21841385,30367,12282,24811,9067,87773,28390,145849,5285.2,32018,12456,43272,46951,23719,41029,203,253,194,32839,795286
203,745,376088,27.01499547,-82.14422047,Marshalls,"18700 Veterans Blvd, Port Charlotte, FL, United States",299363859,Port Charlotte,Charlotte County,Florida,33954,12015020301,20301,12,15,6071,4358,1691,73531,1258.6,58413,196659,50980,50.7,35096,236417,24072,6495,1987,7602,4346,52141,125160,270159,10574924,19860844,21964,9520,17770,6729,61104,19322,72393,1239.1,33679,8496,15236,5355,56753,8633,83,82,84,33954,200474
204,796,374136,26.27086874,-81.79847013,Marshalls,"Immokalee Road, Vanderbilt Beach, Florida, United States",52212703,Naples,Collier County,Florida,34110,12021010205,10205,12,21,2639,2214,425,74217,1903.9,90230,375776,76324,59,52381,460370,25526,10078,1993,17501,13632,101613,282563,228964,22541928,39906838,23242,9479,22152,7685,64771,17672,100121,2568.4,39775,8048,12163,1159,60543,11203,92,61,97,34110,1116812
205,473,367379,26.36594881,-80.1735641,Marshalls,"8180 Glades Rd, Boca Raton, FL, United States",120717778,Boca Raton,Palm Beach County,Florida,33434,12099007741,7741,12,99,4371,3002,1329,153583,3557.8,82353,298946,68647,51.4,72323,364078,47534,16831,1985,35908,22807,266624,197043,187011,36248961,63509327,48061,20119,43088,14067,129909,36318,147965,3427.7,68760,16243,36746,8971,100976,30645,45,28,47,33434,503666
206,541,363170,26.04343239,-80.15896058,Marshalls,"3701 Oakwood Blvd, Hollywood, FL, United States",182497568,Hollywood,Broward County,Florida,33020,12011080500,80500,12,11,7927,6537,1316,165612,4039.7,58716,75657,51253,42.3,77695,324555,33519,34349,1971,24039,14182,97498,334187,473520,26580242,47112672,48990,19711,42672,14863,134072,41517,193382,4717.1,59844,20090,50407,36392,73070,59798,146,124,149,33020,752846
207,340,360793,26.52946565,-80.09281893,Marshalls,"363 N Congress Ave Bay 103, Boynton Beach, FL, United States",287802675,Boynton Beach,Palm Beach County,Florida,33436,12099006012,6012,12,99,5179,4086,984,203072,4092,68390,197445,57295,49.3,100276,296133,59106,27306,1987,34697,20070,107087,169437,209081,39097008,67684085,62325,26237,51168,18269,169505,51245,177431,3575.4,83847,21351,53617,49237,112177,37617,104,101,104,33436,926062
208,1132,360382,30.48249025,-81.6407356,Marshalls,"14964 Max Leggett Pkwy, Ste 200, Jacksonville, FL, United States",225092773,Jacksonville,Duval County,Florida,32218,12031010301,10301,12,31,6359,5251,806,27951,878.2,63090,96408,53969,37.2,11813,233539,6251,4729,1998,2932,1408,21498,51094,90699,4002817,7327016,8193,3283,6467,2508,21136,7170,34267,1076.7,10118,3330,7572,9973,13458,2611,171,176,170,32218,1277219
209,1169,358726,26.28817959,-80.24929148,Marshalls,"Wiles Road, Florida, United States",49551477,Coral Springs,Broward County,Florida,33065,12011010604,10604,12,11,4312,3993,319,199466,4713.8,86108,170365,72134,39,73094,375618,42955,26961,1988,35807,19949,169582,223483,320274,37540930,66795988,60719,23426,53565,15270,157218,46416,173552,4101.4,84657,19953,52593,43579,85756,57845,63,38,68,33065,1106941
210,1059,358512,28.67530247,-81.4710751,Marshalls,"2175 E Semoran Blvd, Apopka, FL, United States",87950788,Apopka,Orange County,Florida,32703,12095017807,17807,12,95,4113,3746,355,84974,2619.5,69857,170306,58270,39.1,31898,267291,20589,10000,1986,13817,5794,14182,106015,308018,13379338,24141628,25381,10127,20901,6802,66997,21235,77729,2396.2,33962,8168,24071,14691,42176,27139,95,89,95,32703,1016471
211,1428,356655,28.39222915,-81.48445473,Marshalls,"Lake Street, Florida, United States",80299047,Orlando,Orange County,Florida,32821,12095017022,17022,12,95,7813,4722,3091,43678,1940.5,83334,98159,68995,36.1,20331,390488,7175,10043,1997,11036,5683,148096,12314,11960,10040481,17524009,13517,5576,12841,3754,35421,10411,70749,3143.3,19792,2425,12887,2377,20767,15082,170,147,174,32821,514732
212,813,341760,30.17570908,-81.62667292,Marshalls,"10991-2 San Jose Ap, Jacksonville, Florida, United States",67029920,Jacksonville,Duval County,Florida,32223,12031016808,16808,12,31,4055,3067,988,91942,2335.6,79468,213427,65578,43.4,39094,278632,25214,11657,1986,18348,10122,20980,115358,158948,17588396,31820356,27866,11688,25021,8000,74185,21197,92469,2349,43195,8670,20667,8567,64895,10742,82,66,84,32223,769053
213,1198,339297,28.47550606,-81.28715209,Marshalls,"Market Place Drive, Orlando, Florida, United States",80711415,Orlando,Orange County,Florida,32822,12095013507,13507,12,95,7046,4396,2650,96681,3108.7,55632,69473,48976,36.6,39338,265824,19130,17894,1988,13786,5784,12600,33930,172296,13466548,23505902,28065,11166,22845,7904,76240,24415,83933,2698.8,35775,10911,29133,9339,36475,56598,121,126,120,32822,896154
214,145,335509,25.62066372,-80.34234868,Marshalls,"16051 S Dixie Hwy, Ste B, Miami, FL, United States",96218049,Miami,Miami-Dade County,Florida,33157,12086008208,8208,12,86,4679,4402,269,125549,4121.1,79104,205193,65605,41.2,44171,384210,28803,13439,1976,20397,12126,171127,145165,290958,22124864,39668097,36340,14812,32040,8448,99439,29374,114999,3774.8,50760,11613,35931,20240,40177,75553,115,119,115,33157,1559025
215,196,332075,26.44065508,-80.07277198,Marshalls,"1700 S Federal Hwy, Delray Beach, FL, United States",78913323,Delray Beach,Palm Beach County,Florida,33483,12099006502,6502,12,99,4216,2521,1367,107317,3355.6,76799,209831,63601,53.2,63579,384480,33050,18143,1982,24598,15433,98648,265802,268816,28621296,50268476,33097,13700,30266,10823,92670,26250,155140,4850.9,43255,13563,30073,18109,71537,13985,128,108,131,33483,813788
216,388,331600,27.90785906,-82.50472481,Marshalls,"3802B S Dale Mabry Hwy, Tampa, FL, United States",89133164,Tampa,Hillsborough County,Florida,33608,12057006700,6700,12,57,6114,5108,899,143459,5110.9,83433,114213,69462,38.5,72728,393007,33546,32491,1984,33841,24600,117208,261425,224677,40346515,69988860,43534,17993,44558,14455,120103,36021,216654,7718.5,53108,16142,48998,11786,97359,28103,82,93,80,,
217,1258,330807,27.98832505,-82.1249478,Marshalls,"237 W Alexander St, Plant City, FL, United States",48494433,Plant City,Hillsborough County,Florida,33566,12057013003,13003,12,57,3474,2825,501,55205,1135.4,60459,110544,52620,35.2,19783,255861,11982,6589,1988,5398,2382,12026,20092,191649,6929230,12513344,15002,6640,12604,4034,41152,13825,55257,1136.5,21992,5229,13720,6311,29946,20436,112,119,111,33566,432189
218,207,323604,25.98142858,-80.35797757,Marshalls,"3021 SW 160th Ave, Miramar, FL, United States",16046612,Miramar,Broward County,Florida,33027,12011110360,110360,12,11,5977,5977,0,132606,4330.5,93022,258083,77360,40,47879,392817,34246,11472,1997,22169,15624,101412,59154,135461,24983752,43576343,40497,17013,35964,10064,103667,30712,111148,3629.7,57463,9947,36117,26328,33937,72570,66,43,69,33027,1708762
219,399,309341,26.01274602,-80.25153526,Marshalls,"500 N University Dr, Pembroke Pines, FL, United States",55531643,Pembroke Pines,Broward County,Florida,33024,12011110312,110312,12,11,7192,6116,1064,204042,6100.2,66549,123913,56345,37.6,73952,303116,44263,26237,1978,23223,12857,56582,95665,304347,28251008,49760634,59354,22887,49301,14398,160106,50212,162523,4858.9,70606,20980,67604,64327,53411,89983,96,79,99,33024,1526252
220,1181,305582,27.46365197,-82.63403533,Marshalls,"7224 Cortez Rd W, Bradenton, FL, United States",98737909,Bradenton,Manatee County,Florida,34210,12081000409,409,12,81,2827,2185,642,86632,3354.6,56966,172324,50074,51.7,49716,246923,26550,12804,1978,10698,6611,12479,75674,184564,14679935,26195120,26287,11556,22255,8321,72925,21330,81322,3148.9,33474,12803,21657,6198,63363,15652,78,84,78,34210,275950
221,398,302981,26.6160286,-80.14417633,Marshalls,"6452 Lake Worth Rd, Greenacres, FL, United States",332780273,Lake Worth,Palm Beach County,Florida,33463,12099004819,4819,12,99,4512,4073,439,179715,4712.1,63085,156341,54133,39.5,68620,264137,43075,19919,1986,22818,11191,23042,57747,177908,25676151,44353551,52821,21115,41835,13284,139167,42986,129826,3404,67152,16997,51325,33623,72647,77079,68,63,69,33463,1147244
222,1364,285714,28.26592456,-81.3308053,Marshalls,"1456 Simmons Road, Florida, United States",59303630,Kissimmee,Osceola County,Florida,34744,12097042904,42904,12,97,6715,6312,403,76736,2424.9,55952,101810,49313,36.8,27901,245479,16652,9481,1998,8422,3106,13660,25763,99092,8933049,16112457,22241,8392,17369,5665,59374,19450,73201,2313.2,29333,7683,21495,6257,35217,41592,87,104,85,34744,1009261
223,1197,283748,25.8314203,-80.25975734,Marshalls,"901 E 10th Ave, Hialeah, FL, United States",188175046,Hialeah,Miami-Dade County,Florida,33010,12086000805,805,12,86,5944,5289,620,222919,7173.6,37493,15894,32816,41.3,81378,293403,29324,47128,1962,17488,6875,102965,221023,554487,19373254,33946878,69443,24654,46850,12845,177254,64162,217462,6998,72093,23600,75377,45451,44730,168849,143,192,135,33010,538699
224,1192,277451,30.48203772,-87.20826445,Marshalls,"1650 Airport Blvd, Pensacola, FL, United States",150946065,Pensacola,Escambia County,Florida,32504,12033001201,1201,12,33,4899,3146,1722,70452,2233.7,57011,87498,50150,39.7,31736,242566,16444,12011,1975,10162,6874,89415,164827,260967,10549295,19312315,20792,8723,17765,6072,57940,17237,88770,2814.5,23326,7879,25322,15318,44934,4764,125,131,124,32504,476282
225,1135,268583,30.31105405,-81.73429752,Marshalls,"918 Garth Avenue, Jacksonville, Florida, United States",74145471,Jacksonville,Duval County,Florida,32205,12031012100,12100,12,31,1858,1600,258,102382,2568.4,52027,52084,44378,38.9,48909,193235,20809,22724,1959,11802,6457,35481,117160,315725,14822596,27286224,28440,12364,24289,9019,80084,26106,155571,3902.8,31756,14141,32585,36521,51146,8650,198,249,189,32205,706970
226,866,266804,26.23680797,-80.20107708,Marshalls,"5461 W Atlantic Blvd, Margate, FL, United States",316236457,Pompano Beach,Broward County,Florida,33063,12011020103,20103,12,11,5146,3945,1188,190044,5349.1,57042,106851,50164,41.9,82807,253309,45180,28277,1980,24725,13046,142854,293484,379929,26664884,46492986,56186,22529,45026,15514,153152,46852,179096,5041,69482,22481,55432,68798,61724,53219,95,99,94,33063,1045783
227,1315,242889,26.06015291,-81.69784683,Marshalls,"13100 Tamiami Trl E, Naples, FL, United States",59420319,Naples,Collier County,Florida,34113,12021011103,11103,12,21,2384,1816,568,41877,1332.1,72955,257001,60390,54.1,29939,363351,14006,4589,2000,6900,4112,5883,8919,68813,8573667,16370335,12099,5529,10151,4024,34940,10060,35337,1124.1,20527,3781,8332,4183,27783,10747,97,84,99,34113,551963
228,124,242170,28.33256231,-81.47381297,Marshalls,"4795 W Irlo Bronson Memorial Hwy, Kissimmee, FL, United States",39650019,Kissimmee,Osceola County,Florida,34742,12097040904,40904,12,97,5166,4147,1019,40283,2446.5,49592,31133,42534,34.7,18945,227305,6283,8004,1999,6210,2059,39302,39805,77588,4359641,7626759,11643,4560,9771,3038,31421,10103,46432,2819.9,14090,3384,13986,2886,15452,22159,146,129,150,,
229,678,236513,28.54893327,-81.34961019,Marshalls,"2642 E Colonial Dr, Orlando, FL, United States",87962624,Orlando,Orange County,Florida,32803,12095018400,18400,12,95,2723,1696,978,173737,4091.5,63241,63860,54468,38,83819,307598,32486,44388,1976,33141,18760,113531,283398,374503,34345949,59567707,51134,21179,48640,16849,142958,44871,307149,7233.4,54700,20727,64244,27628,89613,55152,173,158,176,32803,831802
230,419,235265,28.55435066,-81.47929418,Marshalls,"7323 W Colonial Dr, Orlando, FL, United States",298370207,Orlando,Orange County,Florida,32818,12095014904,14904,12,95,7221,6451,766,150044,3960.2,52276,46813,44857,34.1,55829,231713,24149,28397,1986,15867,7237,60515,125401,357183,17146943,30453314,41836,15920,33575,10748,114328,37253,145167,3831.5,48373,14602,51859,78755,31092,29911,159,221,149,32818,698088
231,1386,233046,25.93840204,-80.2473497,Marshalls,"17966 NW 27th Ave, Miami Gardens, FL, United States",234852649,Miami Gardens,Miami-Dade County,Florida,33056,12086009401,9401,12,86,2267,1742,250,190261,5597.9,50399,61197,42485,36.3,62087,273024,33975,26076,1970,13993,6459,103453,212795,381959,17959470,32213094,53307,18677,41047,11416,145266,48010,177525,5223.2,55010,17191,72212,100399,22415,80738,141,178,134,33056,566795
232,1163,223103,26.18834769,-80.20689326,Marshalls,"4197 W Commercial Blvd, Tamarac, FL, United States",182012430,Fort Lauderdale,Broward County,Florida,33309,12011050309,50309,12,11,2669,2388,281,327684,6174.5,52779,76777,45361,39.7,138002,242996,69856,53833,1976,35963,18725,129289,389802,593470,40860537,72359687,94140,36901,76693,25572,258216,81707,302843,5706.4,109958,36563,105553,178729,69985,71771,127,142,125,33309,732027
233,,211309,30.14840093,-81.75340135,Marshalls,"661 Blanding Blvd Ste 401, Orange Park, FL, United States",2670916,Orange Park,Clay County,Florida,32065,12019030802,30802,12,19,6709,5833,849,61645,2438.7,70247,163089,58123,39.1,25655,212564,15839,8107,1983,7414,2839,54150,112882,160291,9596672,17505195,18517,7731,15355,5045,48713,14933,61026,2414.2,25297,6426,16146,10585,38543,8497,94,102,92,32065,855851
234,1455,188704,26.11916123,-80.17708116,Marshalls,"2660 W Broward Blvd, Fort Lauderdale, FL, United States",93177726,Fort Lauderdale,Broward County,Florida,33312,12011042802,42802,12,11,2275,2027,248,227543,4880.9,58662,60767,51275,38.3,100500,312456,41915,48008,1971,30659,17825,154993,305004,551355,37619534,66622100,66131,25302,57843,19066,180586,57489,273155,5859.3,70566,23998,83364,108163,69680,47331,207,204,208,33312,1097937
235,356,175715,25.77398514,-80.32171357,Marshalls,"marshall/homegoods, Miami, FL, United States",173346844,Miami,Miami-Dade County,Florida,33144,12086009014,9014,12,86,4248,3942,306,216347,6332.3,57837,75745,50759,43.5,83309,334334,37864,40657,1975,33782,16337,344455,571583,578134,28900885,49850204,69572,26261,52019,13549,178452,60682,297297,8701.7,84037,27948,58487,2682,53158,195775,100,75,105,33144,443967
236,1086,788124,35.86071326,-83.5683857,T.J. Maxx,"617 Parkway, Sevierville, TN, United States",338420139,Sevierville,Sevier County,Tennessee,37862,47155080500,80500,47,155,5335,4123,1159,11560,826,44971,50361,38992,40.4,5883,236268,2233,2458,1991,1067,379,51706,31362,89430,1527764,2723125,3307,1458,2764,1003,9299,2909,18912,1351.3,4925,1543,2463,192,8418,2676,224,168,233,37862,318487
237,1038,749091,36.16725845,-86.50742595,T.J. Maxx,"103 S Mount Juliet Rd Ste 610, Mount Juliet, TN, United States",287838412,Mount Juliet,Wilson County,Tennessee,37122,47189030908,30908,47,189,7813,6934,879,20000,1389.6,94663,180890,77461,37.5,8820,332512,5271,3095,2004,3973,1995,22275,66364,45684,4293010,7664357,5797,2397,5089,1912,15053,4731,21163,1470.4,10484,1554,3300,1838,14802,1298,99,76,103,37122,1879792
238,760,660811,36.15764194,-85.51977024,T.J. Maxx,"377 W Jackson St, Cookeville, TN, United States",217586414,Cookeville,Putnam County,Tennessee,38503,47141000700,700,47,141,3385,2155,1219,27633,1011.7,38887,15174,35340,30.6,12582,195119,4849,6357,1986,3174,2161,25062,150723,108901,3210451,5722094,8237,3732,7027,2479,22974,7457,42794,1566.8,8239,2694,11386,1587,21689,2800,148,111,155,,
239,108,570941,35.68535549,-88.85815346,T.J. Maxx,"127 Stonebrook Pl, Jackson, TN, United States",81498664,Jackson,Madison County,Tennessee,38305,47113001605,1605,47,113,3297,1716,532,33360,1294,58302,92896,50908,37.3,15000,184698,8020,5711,1987,5301,3434,51727,151114,170846,4825523,8829555,9943,4248,8472,3024,26068,8113,38292,1485.3,13883,2694,8860,11332,18381,2031,169,169,169,38305,1118090
240,579,561342,35.84369359,-86.42686426,T.J. Maxx,"1911 Old Fort Pkwy, Murfreesboro, TN, United States",36245370,Murfreesboro,Rutherford County,Tennessee,37129,47149041800,41800,47,149,4895,3051,761,63215,1901.9,70581,97162,58558,34.4,27746,269453,13313,12099,1998,11712,5137,105512,119796,175408,10371750,18285810,18406,7576,15429,5530,48086,15664,85942,2585.7,24592,5570,17550,10896,40857,6334,157,156,157,37129,1462627
